{"type":"FeatureCollection","features":[{"id":0,"type":"Feature","properties":{"name":"BOTSHABELO","district":"MANGAUNG DISTRICT","province":"FREE_STATE"},"geometry":{"type":"Point","coordinates":[26.71606,-29.2362]}},{"id":1,"type":"Feature","properties":{"name":"KHUBUSIDRIFT","district":"AMATHOLE DISTRICT","province":"EASTERN_CAPE"},"geometry":{"type":"Point","coordinates":[27.62384,-32.56819]}},{"id":2,"type":"Feature","properties":{"name":"STUTTERHEIM","district":"AMATHOLE DISTRICT","province":"EASTERN_CAPE"},"geometry":{"type":"Point","coordinates":[27.42741,-32.57118]}},{"id":3,"type":"Feature","properties":{"name":"MOTHERWELL","district":"NELSON MANDELA DISTRICT","province":"EASTERN_CAPE"},"geometry":{"type":"Point","coordinates":[25.58419,-33.79664]}},{"id":4,"type":"Feature","properties":{"name":"KWADWESI","district":"NELSON MANDELA DISTRICT","province":"EASTERN_CAPE"},"geometry":{"type":"Point","coordinates":[25.52347,-33.84109]}},{"id":5,"type":"Feature","properties":{"name":"CRADOCK","district":"CHRIS HANI DISTRICT","province":"EASTERN_CAPE"},"geometry":{"type":"Point","coordinates":[25.62571,-32.1756]}},{"id":6,"type":"Feature","properties":{"name":"NOENIEPUT","district":"ZF Mgcawu District","province":"NORTHERN_CAPE"},"geometry":{"type":"Point","coordinates":[20.14278,-27.51294]}},{"id":7,"type":"Feature","properties":{"name":"INDWE","district":"CHRIS HANI DISTRICT","province":"EASTERN_CAPE"},"geometry":{"type":"Point","coordinates":[27.33555,-31.47124]}},{"id":8,"type":"Feature","properties":{"name":"ROSSOUW","district":"JOE GQABI DISTRICT","province":"EASTERN_CAPE"},"geometry":{"type":"Point","coordinates":[27.27997,-31.16777]}},{"id":9,"type":"Feature","properties":{"name":"ELANDS HEIGHT","district":"JOE GQABI DISTRICT","province":"EASTERN_CAPE"},"geometry":{"type":"Point","coordinates":[28.22494,-30.80423]}},{"id":10,"type":"Feature","properties":{"name":"NQANQARHU","district":"Joe Gqabi District","province":"Eastern Cape"},"geometry":{"type":"Point","coordinates":[28.34897,-31.06708]}},{"id":11,"type":"Feature","properties":{"name":"WOLWEFONTEIN","district":"SARAH BAARTMAN DISTRICT","province":"EASTERN_CAPE"},"geometry":{"type":"Point","coordinates":[24.82834,-33.29291]}},{"id":12,"type":"Feature","properties":{"name":"ADDO","district":"SARAH BAARTMAN DISTRICT","province":"EASTERN_CAPE"},"geometry":{"type":"Point","coordinates":[25.69029,-33.54769]}},{"id":13,"type":"Feature","properties":{"name":"KWA THEMA","district":"EKURHULENI DISTRICT","province":"GAUTENG"},"geometry":{"type":"Point","coordinates":[28.39438,-26.27889]}},{"id":14,"type":"Feature","properties":{"name":"BRAKPAN","district":"EKURHULENI DISTRICT","province":"GAUTENG"},"geometry":{"type":"Point","coordinates":[28.36257,-26.23481]}},{"id":15,"type":"Feature","properties":{"name":"SWARTBERG","district":"Harry Gwala District","province":"KWAZULU_NATAL"},"geometry":{"type":"Point","coordinates":[29.33874,-30.24156]}},{"id":16,"type":"Feature","properties":{"name":"SMITHFIELD","district":"XHARIEP DISTRICT","province":"FREE_STATE"},"geometry":{"type":"Point","coordinates":[26.53167,-30.20976]}},{"id":17,"type":"Feature","properties":{"name":"VENTERSBURG","district":"LEJWELEPUTSWA DISTRICT","province":"FREE_STATE"},"geometry":{"type":"Point","coordinates":[27.13605,-28.08577]}},{"id":18,"type":"Feature","properties":{"name":"THEUNISSEN","district":"LEJWELEPUTSWA DISTRICT","province":"FREE_STATE"},"geometry":{"type":"Point","coordinates":[26.71208,-28.40042]}},{"id":19,"type":"Feature","properties":{"name":"THABONG","district":"LEJWELEPUTSWA DISTRICT","province":"FREE_STATE"},"geometry":{"type":"Point","coordinates":[26.78051,-27.97483]}},{"id":20,"type":"Feature","properties":{"name":"HENDRINA","district":"Nkangala District","province":"MPUMALANGA"},"geometry":{"type":"Point","coordinates":[29.71433,-26.16052]}},{"id":21,"type":"Feature","properties":{"name":"LAERSDRIFT","district":"Nkangala District","province":"MPUMALANGA"},"geometry":{"type":"Point","coordinates":[29.85622,-25.36766]}},{"id":22,"type":"Feature","properties":{"name":"MARBLE HALL","district":"Sekhukhune District","province":"LIMPOPO"},"geometry":{"type":"Point","coordinates":[29.29687,-24.96968]}},{"id":23,"type":"Feature","properties":{"name":"EVATON","district":"SEDIBENG DISTRICT","province":"GAUTENG"},"geometry":{"type":"Point","coordinates":[27.85719,-26.54172]}},{"id":24,"type":"Feature","properties":{"name":"HEIDEDAL","district":"MANGAUNG DISTRICT","province":"FREE_STATE"},"geometry":{"type":"Point","coordinates":[26.25019,-29.14242]}},{"id":25,"type":"Feature","properties":{"name":"BOITHUSO","district":"MANGAUNG DISTRICT","province":"FREE_STATE"},"geometry":{"type":"Point","coordinates":[26.67399,-29.25967]}},{"id":26,"type":"Feature","properties":{"name":"CLOCOLAN","district":"THABO MOFUTSANYANA DISTRICT","province":"FREE_STATE"},"geometry":{"type":"Point","coordinates":[27.56798,-28.91602]}},{"id":27,"type":"Feature","properties":{"name":"MUSWODI","district":"Vhembe District","province":"LIMPOPO"},"geometry":{"type":"Point","coordinates":[30.52712,-22.57634]}},{"id":28,"type":"Feature","properties":{"name":"MATLELEREKENG","district":"Sekhukhune District","province":"LIMPOPO"},"geometry":{"type":"Point","coordinates":[29.06405,-24.98544]}},{"id":29,"type":"Feature","properties":{"name":"NIEUWOUDTVILLE","district":"Namakwa District","province":"NORTHERN_CAPE"},"geometry":{"type":"Point","coordinates":[19.11703,-31.37425]}},{"id":30,"type":"Feature","properties":{"name":"SESHEGO","district":"Capricorn District","province":"LIMPOPO"},"geometry":{"type":"Point","coordinates":[29.38227,-23.85429]}},{"id":31,"type":"Feature","properties":{"name":"MANKWENG","district":"Capricorn District","province":"LIMPOPO"},"geometry":{"type":"Point","coordinates":[29.72669,-23.88506]}},{"id":32,"type":"Feature","properties":{"name":"KATLEHONG","district":"EKURHULENI DISTRICT","province":"GAUTENG"},"geometry":{"type":"Point","coordinates":[28.1571,-26.3619]}},{"id":33,"type":"Feature","properties":{"name":"PERDEKOP","district":"Gert Sibande District","province":"MPUMALANGA"},"geometry":{"type":"Point","coordinates":[29.62148,-27.16835]}},{"id":34,"type":"Feature","properties":{"name":"ZASTRON","district":"XHARIEP DISTRICT","province":"FREE_STATE"},"geometry":{"type":"Point","coordinates":[27.08167,-30.30455]}},{"id":35,"type":"Feature","properties":{"name":"VERULAM","district":"eThekwini District","province":"KWAZULU_NATAL"},"geometry":{"type":"Point","coordinates":[31.04136,-29.64474]}},{"id":36,"type":"Feature","properties":{"name":"MMAKAU","district":"Bojanala District","province":"NORTH_WEST"},"geometry":{"type":"Point","coordinates":[27.94101,-25.6174]}},{"id":37,"type":"Feature","properties":{"name":"LULEKANI","district":"Mopani District","province":"LIMPOPO"},"geometry":{"type":"Point","coordinates":[31.08104,-23.86649]}},{"id":38,"type":"Feature","properties":{"name":"HLANGANANI","district":"Mopani District","province":"LIMPOPO"},"geometry":{"type":"Point","coordinates":[30.29724,-23.30664]}},{"id":39,"type":"Feature","properties":{"name":"MSOBOMVU","district":"AMATHOLE DISTRICT","province":"EASTERN_CAPE"},"geometry":{"type":"Point","coordinates":[28.186,-32.32437]}},{"id":40,"type":"Feature","properties":{"name":"NTABANKULU","district":"ALFRED NZO DISTRICT","province":"EASTERN_CAPE"},"geometry":{"type":"Point","coordinates":[29.30275,-30.95517]}},{"id":41,"type":"Feature","properties":{"name":"MALOTI","district":"ALFRED NZO DISTRICT","province":"EASTERN_CAPE"},"geometry":{"type":"Point","coordinates":[28.78647,-30.26205]}},{"id":42,"type":"Feature","properties":{"name":"LUKHOLWENI","district":"ALFRED NZO DISTRICT","province":"EASTERN_CAPE"},"geometry":{"type":"Point","coordinates":[28.85494,-30.64249]}},{"id":43,"type":"Feature","properties":{"name":"SUNDRA","district":"Nkangala District","province":"MPUMALANGA"},"geometry":{"type":"Point","coordinates":[28.55062,-26.18637]}},{"id":44,"type":"Feature","properties":{"name":"VRYBURG","district":"Dr Ruth Segomotsi Mompati District","province":"NORTH_WEST"},"geometry":{"type":"Point","coordinates":[24.72628,-26.95942]}},{"id":45,"type":"Feature","properties":{"name":"QUMRHA","district":"Amathole District","province":"Eastern Cape"},"geometry":{"type":"Point","coordinates":[27.89203,-32.57532]}},{"id":46,"type":"Feature","properties":{"name":"GRAAFWATER","district":"West Coast District","province":"WESTERN_CAPE"},"geometry":{"type":"Point","coordinates":[18.60647,-32.15174]}},{"id":47,"type":"Feature","properties":{"name":"SPRINGBOK","district":"Namakwa District","province":"NORTHERN_CAPE"},"geometry":{"type":"Point","coordinates":[17.88498,-29.66587]}},{"id":48,"type":"Feature","properties":{"name":"ALEXANDER BAY","district":"Namakwa District","province":"NORTHERN_CAPE"},"geometry":{"type":"Point","coordinates":[16.49218,-28.60706]}},{"id":49,"type":"Feature","properties":{"name":"GARIES","district":"Namakwa District","province":"NORTHERN_CAPE"},"geometry":{"type":"Point","coordinates":[17.99024,-30.56504]}},{"id":50,"type":"Feature","properties":{"name":"HONDEKLIP BAY","district":"Namakwa District","province":"NORTHERN_CAPE"},"geometry":{"type":"Point","coordinates":[17.27415,-30.32269]}},{"id":51,"type":"Feature","properties":{"name":"STEINKOPF","district":"Namakwa District","province":"NORTHERN_CAPE"},"geometry":{"type":"Point","coordinates":[17.73565,-29.26636]}},{"id":52,"type":"Feature","properties":{"name":"VIOOLSDRIF","district":"Namakwa District","province":"NORTHERN_CAPE"},"geometry":{"type":"Point","coordinates":[17.62354,-28.76911]}},{"id":53,"type":"Feature","properties":{"name":"MAGUDU","district":"Zululand District","province":"KWAZULU_NATAL"},"geometry":{"type":"Point","coordinates":[31.64838,-27.54544]}},{"id":54,"type":"Feature","properties":{"name":"HILLBROW","district":"JOHANNESBURG DISTRICT","province":"GAUTENG"},"geometry":{"type":"Point","coordinates":[28.04464,-26.18823]}},{"id":55,"type":"Feature","properties":{"name":"SWARTRUGGENS","district":"Bojanala District","province":"NORTH_WEST"},"geometry":{"type":"Point","coordinates":[26.68895,-25.6489]}},{"id":56,"type":"Feature","properties":{"name":"ZEERUST","district":"Ngaka Modiri Molema District","province":"NORTH_WEST"},"geometry":{"type":"Point","coordinates":[26.07897,-25.53974]}},{"id":57,"type":"Feature","properties":{"name":"VILLIERSDORP","district":"Overberg District","province":"WESTERN_CAPE"},"geometry":{"type":"Point","coordinates":[19.28734,-33.99243]}},{"id":58,"type":"Feature","properties":{"name":"BREDASDORP","district":"Overberg District","province":"WESTERN_CAPE"},"geometry":{"type":"Point","coordinates":[20.04727,-34.53644]}},{"id":59,"type":"Feature","properties":{"name":"CALEDON","district":"Overberg District","province":"WESTERN_CAPE"},"geometry":{"type":"Point","coordinates":[19.42919,-34.23493]}},{"id":60,"type":"Feature","properties":{"name":"GANS BAY","district":"Overberg District","province":"WESTERN_CAPE"},"geometry":{"type":"Point","coordinates":[19.35139,-34.57818]}},{"id":61,"type":"Feature","properties":{"name":"SOUTPAN","district":"MANGAUNG DISTRICT","province":"FREE_STATE"},"geometry":{"type":"Point","coordinates":[26.06093,-28.72135]}},{"id":62,"type":"Feature","properties":{"name":"MEADOWLANDS","district":"JOHANNESBURG DISTRICT","province":"GAUTENG"},"geometry":{"type":"Point","coordinates":[27.90026,-26.22145]}},{"id":63,"type":"Feature","properties":{"name":"SPRINGS","district":"EKURHULENI DISTRICT","province":"GAUTENG"},"geometry":{"type":"Point","coordinates":[28.44266,-26.24489]}},{"id":64,"type":"Feature","properties":{"name":"GRAHAMSTOWN","district":"SARAH BAARTMAN DISTRICT","province":"EASTERN_CAPE"},"geometry":{"type":"Point","coordinates":[26.53445,-33.31163]}},{"id":65,"type":"Feature","properties":{"name":"MALETSWAI","district":"JOE GQABI DISTRICT","province":"EASTERN_CAPE"},"geometry":{"type":"Point","coordinates":[26.69165,-30.69442]}},{"id":66,"type":"Feature","properties":{"name":"TSHAMUTUMBU","district":"Vhembe District","province":"LIMPOPO"},"geometry":{"type":"Point","coordinates":[30.54586,-22.38491]}},{"id":67,"type":"Feature","properties":{"name":"MMABATHO","district":"Ngaka Modiri Molema District","province":"NORTH_WEST"},"geometry":{"type":"Point","coordinates":[25.6069,-25.8383]}},{"id":68,"type":"Feature","properties":{"name":"LOMANYANENG","district":"Ngaka Modiri Molema District","province":"NORTH_WEST"},"geometry":{"type":"Point","coordinates":[25.65939,-25.8949]}},{"id":69,"type":"Feature","properties":{"name":"ITSOSENG","district":"Ngaka Modiri Molema District","province":"NORTH_WEST"},"geometry":{"type":"Point","coordinates":[25.88043,-26.08725]}},{"id":70,"type":"Feature","properties":{"name":"MOOIFONTEIN","district":"Ngaka Modiri Molema District","province":"NORTH_WEST"},"geometry":{"type":"Point","coordinates":[25.60272,-26.25351]}},{"id":71,"type":"Feature","properties":{"name":"MADIBOGO","district":"Ngaka Modiri Molema District","province":"NORTH_WEST"},"geometry":{"type":"Point","coordinates":[25.1507,-26.42189]}},{"id":72,"type":"Feature","properties":{"name":"BHEKITHEMBA","district":"eThekwini District","province":"KWAZULU_NATAL"},"geometry":{"type":"Point","coordinates":[30.86016,-29.97721]}},{"id":73,"type":"Feature","properties":{"name":"RONDEBOSCH","district":"City of Cape Town District","province":"WESTERN_CAPE"},"geometry":{"type":"Point","coordinates":[18.46833,-33.96262]}},{"id":74,"type":"Feature","properties":{"name":"MUIZENBERG","district":"City of Cape Town District","province":"WESTERN_CAPE"},"geometry":{"type":"Point","coordinates":[18.46663,-34.10872]}},{"id":75,"type":"Feature","properties":{"name":"ROBERTSON","district":"Cape Winelands District","province":"WESTERN_CAPE"},"geometry":{"type":"Point","coordinates":[19.87543,-33.80517]}},{"id":76,"type":"Feature","properties":{"name":"BRANDVLEI","district":"Namakwa District","province":"NORTHERN_CAPE"},"geometry":{"type":"Point","coordinates":[20.4897,-30.46407]}},{"id":77,"type":"Feature","properties":{"name":"ESHOWE","district":"King Cetshwayo District","province":"KWAZULU_NATAL"},"geometry":{"type":"Point","coordinates":[31.45689,-28.90237]}},{"id":78,"type":"Feature","properties":{"name":"GINGINDLOVU","district":"King Cetshwayo District","province":"KWAZULU_NATAL"},"geometry":{"type":"Point","coordinates":[31.58145,-29.02791]}},{"id":79,"type":"Feature","properties":{"name":"KWAMBONAMBI","district":"King Cetshwayo District","province":"KWAZULU_NATAL"},"geometry":{"type":"Point","coordinates":[32.0859,-28.5988]}},{"id":80,"type":"Feature","properties":{"name":"NYONI","district":"Ilembe District","province":"KWAZULU_NATAL"},"geometry":{"type":"Point","coordinates":[31.46301,-29.07975]}},{"id":81,"type":"Feature","properties":{"name":"BABANANGO","district":"Zululand District","province":"KWAZULU_NATAL"},"geometry":{"type":"Point","coordinates":[31.08263,-28.37593]}},{"id":82,"type":"Feature","properties":{"name":"KEI MOUTH","district":"AMATHOLE DISTRICT","province":"EASTERN_CAPE"},"geometry":{"type":"Point","coordinates":[28.37477,-32.6788]}},{"id":83,"type":"Feature","properties":{"name":"QONCE","district":"BUFFALO CITY DISTRICT","province":"EASTERN_CAPE"},"geometry":{"type":"Point","coordinates":[27.39139,-32.87139]}},{"id":84,"type":"Feature","properties":{"name":"KEI ROAD","district":"AMATHOLE DISTRICT","province":"EASTERN_CAPE"},"geometry":{"type":"Point","coordinates":[27.54653,-32.70575]}},{"id":85,"type":"Feature","properties":{"name":"KIDDS BEACH","district":"BUFFALO CITY DISTRICT","province":"EASTERN_CAPE"},"geometry":{"type":"Point","coordinates":[27.69525,-33.14929]}},{"id":86,"type":"Feature","properties":{"name":"MELMOTH","district":"King Cetshwayo District","province":"KWAZULU_NATAL"},"geometry":{"type":"Point","coordinates":[31.39876,-28.59162]}},{"id":87,"type":"Feature","properties":{"name":"RICHMOND-KZN","district":"Umgungundlovu District","province":"KWAZULU_NATAL"},"geometry":{"type":"Point","coordinates":[30.26986,-29.87238]}},{"id":88,"type":"Feature","properties":{"name":"WARTBURG","district":"Umgungundlovu District","province":"KWAZULU_NATAL"},"geometry":{"type":"Point","coordinates":[30.5768,-29.4337]}},{"id":89,"type":"Feature","properties":{"name":"MAMELODI EAST","district":"TSHWANE DISTRICT","province":"GAUTENG"},"geometry":{"type":"Point","coordinates":[28.39609,-25.71357]}},{"id":90,"type":"Feature","properties":{"name":"KWAMASHU E","district":"eThekwini District","province":"KWAZULU_NATAL"},"geometry":{"type":"Point","coordinates":[31.00027,-29.73592]}},{"id":91,"type":"Feature","properties":{"name":"LWANDLE","district":"City of Cape Town District","province":"WESTERN_CAPE"},"geometry":{"type":"Point","coordinates":[18.86718,-34.11561]}},{"id":92,"type":"Feature","properties":{"name":"MPHEPHU","district":"Vhembe District","province":"LIMPOPO"},"geometry":{"type":"Point","coordinates":[30.03913,-22.8985]}},{"id":93,"type":"Feature","properties":{"name":"FRASERBURG","district":"Namakwa District","province":"NORTHERN_CAPE"},"geometry":{"type":"Point","coordinates":[21.5136,-31.91087]}},{"id":94,"type":"Feature","properties":{"name":"GROENVLEI","district":"Amajuba District","province":"KWAZULU_NATAL"},"geometry":{"type":"Point","coordinates":[30.23121,-27.4621]}},{"id":95,"type":"Feature","properties":{"name":"EVATT","district":"Harry Gwala District","province":"KWAZULU_NATAL"},"geometry":{"type":"Point","coordinates":[29.35065,-30.03691]}},{"id":96,"type":"Feature","properties":{"name":"PUNZANA","district":"BUFFALO CITY DISTRICT","province":"EASTERN_CAPE"},"geometry":{"type":"Point","coordinates":[27.44577,-33.06903]}},{"id":97,"type":"Feature","properties":{"name":"CENTANE","district":"AMATHOLE DISTRICT","province":"EASTERN_CAPE"},"geometry":{"type":"Point","coordinates":[28.3202,-32.51021]}},{"id":98,"type":"Feature","properties":{"name":"INTSIKENI","district":"Harry Gwala District","province":"KWAZULU_NATAL"},"geometry":{"type":"Point","coordinates":[29.58809,-30.13768]}},{"id":99,"type":"Feature","properties":{"name":"EZIBELENI","district":"CHRIS HANI DISTRICT","province":"EASTERN_CAPE"},"geometry":{"type":"Point","coordinates":[26.95282,-31.90484]}},{"id":100,"type":"Feature","properties":{"name":"IXOPO","district":"Harry Gwala District","province":"KWAZULU_NATAL"},"geometry":{"type":"Point","coordinates":[30.06021,-30.1548]}},{"id":101,"type":"Feature","properties":{"name":"ST FAITHS","district":"Ugu District","province":"KWAZULU_NATAL"},"geometry":{"type":"Point","coordinates":[30.20243,-30.52934]}},{"id":102,"type":"Feature","properties":{"name":"WANDA","district":"XHARIEP DISTRICT","province":"FREE_STATE"},"geometry":{"type":"Point","coordinates":[24.43268,-29.60004]}},{"id":103,"type":"Feature","properties":{"name":"ALLANRIDGE","district":"LEJWELEPUTSWA DISTRICT","province":"FREE_STATE"},"geometry":{"type":"Point","coordinates":[26.64818,-27.75013]}},{"id":104,"type":"Feature","properties":{"name":"OSIZWENI","district":"Amajuba District","province":"KWAZULU_NATAL"},"geometry":{"type":"Point","coordinates":[30.12937,-27.79043]}},{"id":105,"type":"Feature","properties":{"name":"WENTWORTH","district":"eThekwini District","province":"KWAZULU_NATAL"},"geometry":{"type":"Point","coordinates":[30.98088,-29.94177]}},{"id":106,"type":"Feature","properties":{"name":"SAMORA MACHEL","district":"City of Cape Town District","province":"WESTERN_CAPE"},"geometry":{"type":"Point","coordinates":[18.57275,-34.01742]}},{"id":107,"type":"Feature","properties":{"name":"MOLETLANE","district":"Capricorn District","province":"LIMPOPO"},"geometry":{"type":"Point","coordinates":[29.32023,-24.35769]}},{"id":108,"type":"Feature","properties":{"name":"DWARSBERG","district":"Bojanala District","province":"North West"},"geometry":{"type":"Point","coordinates":[26.65179,-24.94719]}},{"id":109,"type":"Feature","properties":{"name":"MUYEXE","district":"Mopani District","province":"Limpopo"},"geometry":{"type":"Point","coordinates":[30.9051,-23.20285]}},{"id":110,"type":"Feature","properties":{"name":"TSHAULU","district":"Vhembe District","province":"LIMPOPO"},"geometry":{"type":"Point","coordinates":[30.74773,-22.80382]}},{"id":111,"type":"Feature","properties":{"name":"DUTYWA","district":"AMATHOLE DISTRICT","province":"EASTERN_CAPE"},"geometry":{"type":"Point","coordinates":[28.30797,-32.10058]}},{"id":112,"type":"Feature","properties":{"name":"PAARL EAST","district":"Cape Winelands District","province":"WESTERN_CAPE"},"geometry":{"type":"Point","coordinates":[18.99406,-33.71148]}},{"id":113,"type":"Feature","properties":{"name":"ROADSIDE","district":"THABO MOFUTSANYANA DISTRICT","province":"FREE_STATE"},"geometry":{"type":"Point","coordinates":[28.8493,-27.51842]}},{"id":114,"type":"Feature","properties":{"name":"VREDE","district":"THABO MOFUTSANYANA DISTRICT","province":"FREE_STATE"},"geometry":{"type":"Point","coordinates":[29.16897,-27.42321]}},{"id":115,"type":"Feature","properties":{"name":"WARDEN","district":"THABO MOFUTSANYANA DISTRICT","province":"FREE_STATE"},"geometry":{"type":"Point","coordinates":[28.96409,-27.85385]}},{"id":116,"type":"Feature","properties":{"name":"GOEDEMOED","district":"XHARIEP DISTRICT","province":"FREE_STATE"},"geometry":{"type":"Point","coordinates":[26.40335,-30.55924]}},{"id":117,"type":"Feature","properties":{"name":"JACOBSDAL","district":"XHARIEP DISTRICT","province":"FREE_STATE"},"geometry":{"type":"Point","coordinates":[24.77064,-29.13018]}},{"id":118,"type":"Feature","properties":{"name":"JAGERSFONTEIN","district":"XHARIEP DISTRICT","province":"FREE_STATE"},"geometry":{"type":"Point","coordinates":[25.42291,-29.76054]}},{"id":119,"type":"Feature","properties":{"name":"PHILIPPI","district":"City of Cape Town District","province":"WESTERN_CAPE"},"geometry":{"type":"Point","coordinates":[18.54054,-34.00107]}},{"id":120,"type":"Feature","properties":{"name":"FLOUKRAAL","district":"JOE GQABI DISTRICT","province":"EASTERN_CAPE"},"geometry":{"type":"Point","coordinates":[27.05484,-30.99623]}},{"id":121,"type":"Feature","properties":{"name":"JAMESTOWN","district":"JOE GQABI DISTRICT","province":"EASTERN_CAPE"},"geometry":{"type":"Point","coordinates":[26.81023,-31.1205]}},{"id":122,"type":"Feature","properties":{"name":"LADY GREY","district":"JOE GQABI DISTRICT","province":"EASTERN_CAPE"},"geometry":{"type":"Point","coordinates":[27.20923,-30.71202]}},{"id":123,"type":"Feature","properties":{"name":"LADYSMITH","district":"Uthukela District","province":"KWAZULU_NATAL"},"geometry":{"type":"Point","coordinates":[29.77862,-28.56124]}},{"id":124,"type":"Feature","properties":{"name":"AMANGWE","district":"Uthukela District","province":"KWAZULU_NATAL"},"geometry":{"type":"Point","coordinates":[29.61758,-28.94127]}},{"id":125,"type":"Feature","properties":{"name":"BESTERS","district":"Uthukela District","province":"KWAZULU_NATAL"},"geometry":{"type":"Point","coordinates":[29.64116,-28.43673]}},{"id":126,"type":"Feature","properties":{"name":"EZAKHENI","district":"Uthukela District","province":"KWAZULU_NATAL"},"geometry":{"type":"Point","coordinates":[29.9278,-28.59515]}},{"id":127,"type":"Feature","properties":{"name":"RICHARDS BAY","district":"King Cetshwayo District","province":"KWAZULU_NATAL"},"geometry":{"type":"Point","coordinates":[32.05469,-28.74824]}},{"id":128,"type":"Feature","properties":{"name":"LANGEBAAN","district":"West Coast District","province":"WESTERN_CAPE"},"geometry":{"type":"Point","coordinates":[18.03349,-33.09287]}},{"id":129,"type":"Feature","properties":{"name":"MOORREESBURG","district":"West Coast District","province":"WESTERN_CAPE"},"geometry":{"type":"Point","coordinates":[18.66466,-33.15359]}},{"id":130,"type":"Feature","properties":{"name":"PIKETBERG","district":"West Coast District","province":"WESTERN_CAPE"},"geometry":{"type":"Point","coordinates":[18.75449,-32.90627]}},{"id":131,"type":"Feature","properties":{"name":"REDELINGHUYS","district":"West Coast District","province":"WESTERN_CAPE"},"geometry":{"type":"Point","coordinates":[18.53737,-32.47741]}},{"id":132,"type":"Feature","properties":{"name":"ST HELENA BAY","district":"West Coast District","province":"WESTERN_CAPE"},"geometry":{"type":"Point","coordinates":[18.02407,-32.75816]}},{"id":133,"type":"Feature","properties":{"name":"VREDENBURG","district":"West Coast District","province":"WESTERN_CAPE"},"geometry":{"type":"Point","coordinates":[18.00228,-32.90673]}},{"id":134,"type":"Feature","properties":{"name":"MOLTENO","district":"CHRIS HANI DISTRICT","province":"EASTERN_CAPE"},"geometry":{"type":"Point","coordinates":[26.36142,-31.39491]}},{"id":135,"type":"Feature","properties":{"name":"DE DEUR","district":"SEDIBENG DISTRICT","province":"GAUTENG"},"geometry":{"type":"Point","coordinates":[27.91079,-26.51511]}},{"id":136,"type":"Feature","properties":{"name":"BROOKLYN","district":"TSHWANE DISTRICT","province":"GAUTENG"},"geometry":{"type":"Point","coordinates":[28.2377,-25.7556]}},{"id":137,"type":"Feature","properties":{"name":"NQUTHU","district":"Umzinyathi District","province":"KWAZULU_NATAL"},"geometry":{"type":"Point","coordinates":[30.67726,-28.21219]}},{"id":138,"type":"Feature","properties":{"name":"NKANDLA","district":"King Cetshwayo District","province":"KWAZULU_NATAL"},"geometry":{"type":"Point","coordinates":[31.09171,-28.62028]}},{"id":139,"type":"Feature","properties":{"name":"MPUNGAMHLOPHE","district":"Zululand District","province":"KWAZULU_NATAL"},"geometry":{"type":"Point","coordinates":[31.25359,-28.27376]}},{"id":140,"type":"Feature","properties":{"name":"MOGWADI","district":"Capricorn District","province":"LIMPOPO"},"geometry":{"type":"Point","coordinates":[29.32768,-23.36789]}},{"id":141,"type":"Feature","properties":{"name":"PIENAAR","district":"Ehlanzeni District","province":"MPUMALANGA"},"geometry":{"type":"Point","coordinates":[31.1846,-25.43437]}},{"id":142,"type":"Feature","properties":{"name":"DIEPSLOOT","district":"JOHANNESBURG DISTRICT","province":"GAUTENG"},"geometry":{"type":"Point","coordinates":[28.02203,-25.92322]}},{"id":143,"type":"Feature","properties":{"name":"NEMATO","district":"SARAH BAARTMAN DISTRICT","province":"EASTERN_CAPE"},"geometry":{"type":"Point","coordinates":[26.89275,-33.57672]}},{"id":144,"type":"Feature","properties":{"name":"BOTLOKWA","district":"Capricorn District","province":"LIMPOPO"},"geometry":{"type":"Point","coordinates":[29.73967,-23.49214]}},{"id":145,"type":"Feature","properties":{"name":"ATAMELANG","district":"Ngaka Modiri Molema District","province":"NORTH_WEST"},"geometry":{"type":"Point","coordinates":[25.37052,-26.50534]}},{"id":146,"type":"Feature","properties":{"name":"RUST DE WINTER","district":"Waterberg District","province":"LIMPOPO"},"geometry":{"type":"Point","coordinates":[28.60761,-25.20296]}},{"id":147,"type":"Feature","properties":{"name":"GALESHEWE","district":"Frances Baard District","province":"NORTHERN_CAPE"},"geometry":{"type":"Point","coordinates":[24.74277,-28.71051]}},{"id":148,"type":"Feature","properties":{"name":"HARTSWATER","district":"Frances Baard District","province":"NORTHERN_CAPE"},"geometry":{"type":"Point","coordinates":[24.80519,-27.75361]}},{"id":149,"type":"Feature","properties":{"name":"JAN KEMPDORP","district":"Frances Baard District","province":"NORTHERN_CAPE"},"geometry":{"type":"Point","coordinates":[24.83897,-27.91606]}},{"id":150,"type":"Feature","properties":{"name":"MODIMOLLE","district":"Waterberg District","province":"LIMPOPO"},"geometry":{"type":"Point","coordinates":[28.40881,-24.70692]}},{"id":151,"type":"Feature","properties":{"name":"NABOOMSPRUIT","district":"Waterberg District","province":"LIMPOPO"},"geometry":{"type":"Point","coordinates":[28.71265,-24.51843]}},{"id":152,"type":"Feature","properties":{"name":"DORSET","district":"Waterberg District","province":"LIMPOPO"},"geometry":{"type":"Point","coordinates":[28.16096,-24.06064]}},{"id":153,"type":"Feature","properties":{"name":"PIENAARSRIVIER","district":"Waterberg District","province":"LIMPOPO"},"geometry":{"type":"Point","coordinates":[28.2964,-25.20246]}},{"id":154,"type":"Feature","properties":{"name":"ROEDTAN","district":"Waterberg District","province":"LIMPOPO"},"geometry":{"type":"Point","coordinates":[29.08164,-24.59628]}},{"id":155,"type":"Feature","properties":{"name":"ROOIBERG","district":"Waterberg District","province":"LIMPOPO"},"geometry":{"type":"Point","coordinates":[27.73079,-24.77912]}},{"id":156,"type":"Feature","properties":{"name":"TUINPLAAS","district":"Waterberg District","province":"LIMPOPO"},"geometry":{"type":"Point","coordinates":[28.73605,-24.90246]}},{"id":157,"type":"Feature","properties":{"name":"PHOENIX","district":"eThekwini District","province":"KWAZULU_NATAL"},"geometry":{"type":"Point","coordinates":[31.00799,-29.70143]}},{"id":158,"type":"Feature","properties":{"name":"CITRUSDAL","district":"West Coast District","province":"WESTERN_CAPE"},"geometry":{"type":"Point","coordinates":[19.01101,-32.58829]}},{"id":159,"type":"Feature","properties":{"name":"CLANWILLIAM","district":"West Coast District","province":"WESTERN_CAPE"},"geometry":{"type":"Point","coordinates":[18.89226,-32.17615]}},{"id":160,"type":"Feature","properties":{"name":"DORING BAY","district":"West Coast District","province":"WESTERN_CAPE"},"geometry":{"type":"Point","coordinates":[18.23678,-31.81174]}},{"id":161,"type":"Feature","properties":{"name":"BURGERSFORT","district":"Sekhukhune District","province":"LIMPOPO"},"geometry":{"type":"Point","coordinates":[30.32999,-24.67925]}},{"id":162,"type":"Feature","properties":{"name":"DULLSTROOM","district":"Nkangala District","province":"MPUMALANGA"},"geometry":{"type":"Point","coordinates":[30.10594,-25.41676]}},{"id":163,"type":"Feature","properties":{"name":"CYFERSKUIL","district":"Bojanala District","province":"NORTH_WEST"},"geometry":{"type":"Point","coordinates":[28.24066,-25.0764]}},{"id":164,"type":"Feature","properties":{"name":"PHOKENG","district":"Bojanala District","province":"NORTH_WEST"},"geometry":{"type":"Point","coordinates":[27.16254,-25.57313]}},{"id":165,"type":"Feature","properties":{"name":"MADIKWE","district":"Bojanala District","province":"NORTH_WEST"},"geometry":{"type":"Point","coordinates":[26.52447,-25.35177]}},{"id":166,"type":"Feature","properties":{"name":"TAUNG","district":"Dr Ruth Segomotsi Mompati District","province":"NORTH_WEST"},"geometry":{"type":"Point","coordinates":[24.77898,-27.54507]}},{"id":167,"type":"Feature","properties":{"name":"PAMPIERSTAT","district":"Frances Baard District","province":"NORTHERN_CAPE"},"geometry":{"type":"Point","coordinates":[24.69018,-27.77091]}},{"id":168,"type":"Feature","properties":{"name":"KGOMOTSO","district":"Dr Ruth Segomotsi Mompati District","province":"NORTH_WEST"},"geometry":{"type":"Point","coordinates":[24.61279,-27.98218]}},{"id":169,"type":"Feature","properties":{"name":"WEDELA","district":"WEST RAND DISTRICT","province":"GAUTENG"},"geometry":{"type":"Point","coordinates":[27.383,-26.4567]}},{"id":170,"type":"Feature","properties":{"name":"KWAMAKHUTHA","district":"eThekwini District","province":"KWAZULU_NATAL"},"geometry":{"type":"Point","coordinates":[30.86804,-30.0253]}},{"id":171,"type":"Feature","properties":{"name":"KWANDENGEZI","district":"eThekwini District","province":"KWAZULU_NATAL"},"geometry":{"type":"Point","coordinates":[30.76895,-29.85093]}},{"id":172,"type":"Feature","properties":{"name":"LESLIE","district":"Gert Sibande District","province":"MPUMALANGA"},"geometry":{"type":"Point","coordinates":[28.92186,-26.36964]}},{"id":173,"type":"Feature","properties":{"name":"BETHAL","district":"Gert Sibande District","province":"MPUMALANGA"},"geometry":{"type":"Point","coordinates":[29.46955,-26.46098]}},{"id":174,"type":"Feature","properties":{"name":"KRIEL","district":"Nkangala District","province":"MPUMALANGA"},"geometry":{"type":"Point","coordinates":[29.26061,-26.25064]}},{"id":175,"type":"Feature","properties":{"name":"REIVILO","district":"Dr Ruth Segomotsi Mompati District","province":"NORTH_WEST"},"geometry":{"type":"Point","coordinates":[24.1833,-27.57072]}},{"id":176,"type":"Feature","properties":{"name":"MUTALE","district":"Vhembe District","province":"LIMPOPO"},"geometry":{"type":"Point","coordinates":[30.52317,-22.73445]}},{"id":177,"type":"Feature","properties":{"name":"EAST LONDON","district":"BUFFALO CITY DISTRICT","province":"EASTERN_CAPE"},"geometry":{"type":"Point","coordinates":[27.90288,-33.02058]}},{"id":178,"type":"Feature","properties":{"name":"FLAGSTAFF","district":"OR TAMBO DISTRICT","province":"EASTERN_CAPE"},"geometry":{"type":"Point","coordinates":[29.49472,-31.08187]}},{"id":179,"type":"Feature","properties":{"name":"MBIZANA","district":"ALFRED NZO DISTRICT","province":"EASTERN_CAPE"},"geometry":{"type":"Point","coordinates":[29.85939,-30.85428]}},{"id":180,"type":"Feature","properties":{"name":"HAZYVIEW","district":"Ehlanzeni District","province":"MPUMALANGA"},"geometry":{"type":"Point","coordinates":[31.1283,-25.04701]}},{"id":181,"type":"Feature","properties":{"name":"WEMBEZI","district":"Uthukela District","province":"KWAZULU_NATAL"},"geometry":{"type":"Point","coordinates":[29.78917,-29.04502]}},{"id":182,"type":"Feature","properties":{"name":"VILLA NORA","district":"Waterberg District","province":"LIMPOPO"},"geometry":{"type":"Point","coordinates":[28.12587,-23.52831]}},{"id":183,"type":"Feature","properties":{"name":"NEWLANDS EAST","district":"eThekwini District","province":"KWAZULU_NATAL"},"geometry":{"type":"Point","coordinates":[30.97478,-29.78514]}},{"id":184,"type":"Feature","properties":{"name":"DENNILTON","district":"Sekhukhune District","province":"LIMPOPO"},"geometry":{"type":"Point","coordinates":[29.14743,-25.25865]}},{"id":185,"type":"Feature","properties":{"name":"MALELANE","district":"Ehlanzeni District","province":"MPUMALANGA"},"geometry":{"type":"Point","coordinates":[31.51072,-25.49436]}},{"id":186,"type":"Feature","properties":{"name":"IBISI","district":"Harry Gwala District","province":"KWAZULU_NATAL"},"geometry":{"type":"Point","coordinates":[29.88793,-30.40506]}},{"id":187,"type":"Feature","properties":{"name":"BRIDGE CAMP","district":"CHRIS HANI DISTRICT","province":"EASTERN_CAPE"},"geometry":{"type":"Point","coordinates":[27.3588,-32.02197]}},{"id":188,"type":"Feature","properties":{"name":"NGQELENI","district":"OR TAMBO DISTRICT","province":"EASTERN_CAPE"},"geometry":{"type":"Point","coordinates":[29.03225,-31.67193]}},{"id":189,"type":"Feature","properties":{"name":"POTCHEFSTROOM","district":"Dr Kenneth Kaunda District","province":"NORTH_WEST"},"geometry":{"type":"Point","coordinates":[27.09456,-26.71531]}},{"id":190,"type":"Feature","properties":{"name":"BEDWANG","district":"Bojanala District","province":"NORTH_WEST"},"geometry":{"type":"Point","coordinates":[27.96893,-25.087]}},{"id":191,"type":"Feature","properties":{"name":"MATSULU","district":"Ehlanzeni District","province":"MPUMALANGA"},"geometry":{"type":"Point","coordinates":[31.34609,-25.51513]}},{"id":192,"type":"Feature","properties":{"name":"MAYFLOWER","district":"Gert Sibande District","province":"MPUMALANGA"},"geometry":{"type":"Point","coordinates":[30.77622,-26.30353]}},{"id":193,"type":"Feature","properties":{"name":"MACHADODORP","district":"Nkangala District","province":"MPUMALANGA"},"geometry":{"type":"Point","coordinates":[30.25328,-25.66843]}},{"id":194,"type":"Feature","properties":{"name":"OHRIGSTAD","district":"Sekhukhune District","province":"LIMPOPO"},"geometry":{"type":"Point","coordinates":[30.55652,-24.75191]}},{"id":195,"type":"Feature","properties":{"name":"PRIMROSE","district":"EKURHULENI DISTRICT","province":"GAUTENG"},"geometry":{"type":"Point","coordinates":[28.15795,-26.18914]}},{"id":196,"type":"Feature","properties":{"name":"ALBERTON","district":"EKURHULENI DISTRICT","province":"GAUTENG"},"geometry":{"type":"Point","coordinates":[28.12692,-26.26088]}},{"id":197,"type":"Feature","properties":{"name":"HIMEVILLE","district":"Harry Gwala District","province":"KWAZULU_NATAL"},"geometry":{"type":"Point","coordinates":[29.51173,-29.75237]}},{"id":198,"type":"Feature","properties":{"name":"EERSTERUST","district":"TSHWANE DISTRICT","province":"GAUTENG"},"geometry":{"type":"Point","coordinates":[28.3189,-25.70602]}},{"id":199,"type":"Feature","properties":{"name":"KANANA","district":"Dr Kenneth Kaunda District","province":"NORTH_WEST"},"geometry":{"type":"Point","coordinates":[26.64038,-26.95975]}},{"id":200,"type":"Feature","properties":{"name":"SUN CITY","district":"Bojanala District","province":"NORTH_WEST"},"geometry":{"type":"Point","coordinates":[27.09869,-25.36291]}},{"id":201,"type":"Feature","properties":{"name":"TUMAHOLE","district":"FEZILE DABI DISTRICT","province":"FREE_STATE"},"geometry":{"type":"Point","coordinates":[27.48537,-26.92008]}},{"id":202,"type":"Feature","properties":{"name":"DUNCAN VILLAGE","district":"BUFFALO CITY DISTRICT","province":"EASTERN_CAPE"},"geometry":{"type":"Point","coordinates":[27.88872,-33.00505]}},{"id":203,"type":"Feature","properties":{"name":"GONUBIE","district":"BUFFALO CITY DISTRICT","province":"EASTERN_CAPE"},"geometry":{"type":"Point","coordinates":[28.00084,-32.9366]}},{"id":204,"type":"Feature","properties":{"name":"BLUEWATER","district":"AMATHOLE DISTRICT","province":"EASTERN_CAPE"},"geometry":{"type":"Point","coordinates":[27.95053,-32.72743]}},{"id":205,"type":"Feature","properties":{"name":"BEACON BAY","district":"BUFFALO CITY DISTRICT","province":"EASTERN_CAPE"},"geometry":{"type":"Point","coordinates":[27.93836,-32.96884]}},{"id":206,"type":"Feature","properties":{"name":"NTABOZUKO","district":"Buffalo City District","province":"Eastern Cape"},"geometry":{"type":"Point","coordinates":[27.5732,-32.87859]}},{"id":207,"type":"Feature","properties":{"name":"FOCHVILLE","district":"WEST RAND DISTRICT","province":"GAUTENG"},"geometry":{"type":"Point","coordinates":[27.49416,-26.4879]}},{"id":208,"type":"Feature","properties":{"name":"MOYENI","district":"AMATHOLE DISTRICT","province":"EASTERN_CAPE"},"geometry":{"type":"Point","coordinates":[27.13021,-33.48006]}},{"id":209,"type":"Feature","properties":{"name":"INYIBIBA","district":"BUFFALO CITY DISTRICT","province":"EASTERN_CAPE"},"geometry":{"type":"Point","coordinates":[27.69467,-32.95596]}},{"id":210,"type":"Feature","properties":{"name":"WHITTLESEA","district":"CHRIS HANI DISTRICT","province":"EASTERN_CAPE"},"geometry":{"type":"Point","coordinates":[26.82443,-32.17097]}},{"id":211,"type":"Feature","properties":{"name":"KLEINBULHOEK","district":"CHRIS HANI DISTRICT","province":"EASTERN_CAPE"},"geometry":{"type":"Point","coordinates":[26.575,-32.16655]}},{"id":212,"type":"Feature","properties":{"name":"MELODING","district":"LEJWELEPUTSWA DISTRICT","province":"FREE_STATE"},"geometry":{"type":"Point","coordinates":[26.89475,-28.13308]}},{"id":213,"type":"Feature","properties":{"name":"ARLINGTON","district":"THABO MOFUTSANYANA DISTRICT","province":"FREE_STATE"},"geometry":{"type":"Point","coordinates":[27.85058,-28.02889]}},{"id":214,"type":"Feature","properties":{"name":"STILFONTEIN","district":"Dr Kenneth Kaunda District","province":"NORTH_WEST"},"geometry":{"type":"Point","coordinates":[26.7773,-26.84451]}},{"id":215,"type":"Feature","properties":{"name":"CHRISTIANA","district":"Dr Ruth Segomotsi Mompati District","province":"NORTH_WEST"},"geometry":{"type":"Point","coordinates":[25.16738,-27.90918]}},{"id":216,"type":"Feature","properties":{"name":"DAVEYTON","district":"EKURHULENI DISTRICT","province":"GAUTENG"},"geometry":{"type":"Point","coordinates":[28.4156,-26.15328]}},{"id":217,"type":"Feature","properties":{"name":"PELLA","district":"Namakwa District","province":"NORTHERN_CAPE"},"geometry":{"type":"Point","coordinates":[19.15277,-29.0335]}},{"id":218,"type":"Feature","properties":{"name":"ROSEDALE","district":"ZF Mgcawu District","province":"NORTHERN_CAPE"},"geometry":{"type":"Point","coordinates":[21.20795,-28.4542]}},{"id":219,"type":"Feature","properties":{"name":"PETRUS STEYN","district":"THABO MOFUTSANYANA DISTRICT","province":"FREE_STATE"},"geometry":{"type":"Point","coordinates":[28.13161,-27.64711]}},{"id":220,"type":"Feature","properties":{"name":"MARIKANA","district":"Bojanala District","province":"NORTH_WEST"},"geometry":{"type":"Point","coordinates":[27.48645,-25.70513]}},{"id":221,"type":"Feature","properties":{"name":"OTTOSHOOP","district":"Ngaka Modiri Molema District","province":"NORTH_WEST"},"geometry":{"type":"Point","coordinates":[25.96256,-25.75138]}},{"id":222,"type":"Feature","properties":{"name":"VERKEERDEVLEI","district":"LEJWELEPUTSWA DISTRICT","province":"FREE_STATE"},"geometry":{"type":"Point","coordinates":[26.77901,-28.83224]}},{"id":223,"type":"Feature","properties":{"name":"HENDERSON","district":"CHRIS HANI DISTRICT","province":"EASTERN_CAPE"},"geometry":{"type":"Point","coordinates":[27.33609,-32.3144]}},{"id":224,"type":"Feature","properties":{"name":"MOKOPONG","district":"Dr Ruth Segomotsi Mompati District","province":"NORTH_WEST"},"geometry":{"type":"Point","coordinates":[22.97807,-25.36555]}},{"id":225,"type":"Feature","properties":{"name":"DWAALBOOM","district":"Waterberg District","province":"LIMPOPO"},"geometry":{"type":"Point","coordinates":[26.80808,-24.72708]}},{"id":226,"type":"Feature","properties":{"name":"GRASKOP","district":"Ehlanzeni District","province":"MPUMALANGA"},"geometry":{"type":"Point","coordinates":[30.83923,-24.93494]}},{"id":227,"type":"Feature","properties":{"name":"SWELLENDAM","district":"Overberg District","province":"WESTERN_CAPE"},"geometry":{"type":"Point","coordinates":[20.44455,-34.02047]}},{"id":228,"type":"Feature","properties":{"name":"NEWCASTLE","district":"Amajuba District","province":"KWAZULU_NATAL"},"geometry":{"type":"Point","coordinates":[29.93826,-27.76069]}},{"id":229,"type":"Feature","properties":{"name":"MTUBATUBA","district":"Umkhanyakude District","province":"KWAZULU_NATAL"},"geometry":{"type":"Point","coordinates":[32.18481,-28.41957]}},{"id":230,"type":"Feature","properties":{"name":"NEW HANOVER","district":"Umgungundlovu District","province":"KWAZULU_NATAL"},"geometry":{"type":"Point","coordinates":[30.52769,-29.35433]}},{"id":231,"type":"Feature","properties":{"name":"UMBILO","district":"eThekwini District","province":"KWAZULU_NATAL"},"geometry":{"type":"Point","coordinates":[30.99136,-29.87218]}},{"id":232,"type":"Feature","properties":{"name":"FOURIESBURG","district":"THABO MOFUTSANYANA DISTRICT","province":"FREE_STATE"},"geometry":{"type":"Point","coordinates":[28.20841,-28.61588]}},{"id":233,"type":"Feature","properties":{"name":"MASOYI","district":"Ehlanzeni District","province":"MPUMALANGA"},"geometry":{"type":"Point","coordinates":[31.11541,-25.16354]}},{"id":234,"type":"Feature","properties":{"name":"LEBOWAKGOMO","district":"Capricorn District","province":"LIMPOPO"},"geometry":{"type":"Point","coordinates":[29.48187,-24.32098]}},{"id":235,"type":"Feature","properties":{"name":"STRYDENBURG","district":"Pixley ka Seme District","province":"NORTHERN_CAPE"},"geometry":{"type":"Point","coordinates":[23.67684,-29.94306]}},{"id":236,"type":"Feature","properties":{"name":"VANDERKLOOF","district":"Pixley ka Seme District","province":"NORTHERN_CAPE"},"geometry":{"type":"Point","coordinates":[24.74164,-29.99861]}},{"id":237,"type":"Feature","properties":{"name":"SUNRISE","district":"Pixley ka Seme District","province":"NORTHERN_CAPE"},"geometry":{"type":"Point","coordinates":[24.02046,-30.64993]}},{"id":238,"type":"Feature","properties":{"name":"VORSTERSHOOP","district":"Dr Ruth Segomotsi Mompati District","province":"NORTH_WEST"},"geometry":{"type":"Point","coordinates":[23.02448,-25.83738]}},{"id":239,"type":"Feature","properties":{"name":"STELLA","district":"Dr Ruth Segomotsi Mompati District","province":"NORTH_WEST"},"geometry":{"type":"Point","coordinates":[24.86213,-26.54945]}},{"id":240,"type":"Feature","properties":{"name":"SETLAGOLE","district":"Ngaka Modiri Molema District","province":"NORTH_WEST"},"geometry":{"type":"Point","coordinates":[25.11376,-26.27157]}},{"id":241,"type":"Feature","properties":{"name":"BOSCHKOP","district":"TSHWANE DISTRICT","province":"GAUTENG"},"geometry":{"type":"Point","coordinates":[28.40709,-25.81666]}},{"id":242,"type":"Feature","properties":{"name":"DAWN PARK","district":"EKURHULENI DISTRICT","province":"GAUTENG"},"geometry":{"type":"Point","coordinates":[28.2477,-26.315]}},{"id":243,"type":"Feature","properties":{"name":"TSAKANE","district":"EKURHULENI DISTRICT","province":"GAUTENG"},"geometry":{"type":"Point","coordinates":[28.36975,-26.35194]}},{"id":244,"type":"Feature","properties":{"name":"WEENEN","district":"Uthukela District","province":"KWAZULU_NATAL"},"geometry":{"type":"Point","coordinates":[30.08461,-28.85307]}},{"id":245,"type":"Feature","properties":{"name":"CEDARVILLE","district":"ALFRED NZO DISTRICT","province":"EASTERN_CAPE"},"geometry":{"type":"Point","coordinates":[29.04574,-30.39106]}},{"id":246,"type":"Feature","properties":{"name":"ISIPINGO","district":"eThekwini District","province":"KWAZULU_NATAL"},"geometry":{"type":"Point","coordinates":[30.92521,-29.98666]}},{"id":247,"type":"Feature","properties":{"name":"ELDORADO PARK","district":"JOHANNESBURG DISTRICT","province":"GAUTENG"},"geometry":{"type":"Point","coordinates":[27.90082,-26.29105]}},{"id":248,"type":"Feature","properties":{"name":"HLOBANE","district":"Zululand District","province":"KWAZULU_NATAL"},"geometry":{"type":"Point","coordinates":[31.00971,-27.73717]}},{"id":249,"type":"Feature","properties":{"name":"KINGSLEY","district":"Amajuba District","province":"KWAZULU_NATAL"},"geometry":{"type":"Point","coordinates":[30.53045,-27.93065]}},{"id":250,"type":"Feature","properties":{"name":"BELLAIR","district":"eThekwini District","province":"KWAZULU_NATAL"},"geometry":{"type":"Point","coordinates":[30.94137,-29.88968]}},{"id":251,"type":"Feature","properties":{"name":"VULINDLELA","district":"BUFFALO CITY DISTRICT","province":"EASTERN_CAPE"},"geometry":{"type":"Point","coordinates":[27.71242,-32.92197]}},{"id":252,"type":"Feature","properties":{"name":"DELPORTSHOOP","district":"Frances Baard District","province":"NORTHERN_CAPE"},"geometry":{"type":"Point","coordinates":[24.31019,-28.41605]}},{"id":253,"type":"Feature","properties":{"name":"RIEBEEK WEST","district":"West Coast District","province":"WESTERN_CAPE"},"geometry":{"type":"Point","coordinates":[18.8727,-33.35093]}},{"id":254,"type":"Feature","properties":{"name":"LYDENBURG","district":"Ehlanzeni District","province":"MPUMALANGA"},"geometry":{"type":"Point","coordinates":[30.45298,-25.0964]}},{"id":255,"type":"Feature","properties":{"name":"BOKSBURG","district":"EKURHULENI DISTRICT","province":"GAUTENG"},"geometry":{"type":"Point","coordinates":[28.23787,-26.22025]}},{"id":256,"type":"Feature","properties":{"name":"KEMPTON PARK","district":"EKURHULENI DISTRICT","province":"GAUTENG"},"geometry":{"type":"Point","coordinates":[28.23211,-26.10141]}},{"id":257,"type":"Feature","properties":{"name":"TARLTON","district":"WEST RAND DISTRICT","province":"GAUTENG"},"geometry":{"type":"Point","coordinates":[27.66759,-26.09221]}},{"id":258,"type":"Feature","properties":{"name":"EKANGALA","district":"TSHWANE DISTRICT","province":"GAUTENG"},"geometry":{"type":"Point","coordinates":[28.74155,-25.69136]}},{"id":259,"type":"Feature","properties":{"name":"PIETERMARITZBURG","district":"Umgungundlovu District","province":"KWAZULU_NATAL"},"geometry":{"type":"Point","coordinates":[30.37979,-29.60476]}},{"id":260,"type":"Feature","properties":{"name":"MID ILLOVO","district":"Umgungundlovu District","province":"KWAZULU_NATAL"},"geometry":{"type":"Point","coordinates":[30.51511,-29.96608]}},{"id":261,"type":"Feature","properties":{"name":"ALEXANDRA ROAD","district":"Umgungundlovu District","province":"KWAZULU_NATAL"},"geometry":{"type":"Point","coordinates":[30.38773,-29.61901]}},{"id":262,"type":"Feature","properties":{"name":"BISHOPSTOWE","district":"Umgungundlovu District","province":"KWAZULU_NATAL"},"geometry":{"type":"Point","coordinates":[30.47682,-29.58422]}},{"id":263,"type":"Feature","properties":{"name":"BOSTON","district":"Umgungundlovu District","province":"KWAZULU_NATAL"},"geometry":{"type":"Point","coordinates":[30.04722,-29.68509]}},{"id":264,"type":"Feature","properties":{"name":"CAMPERDOWN","district":"Umgungundlovu District","province":"KWAZULU_NATAL"},"geometry":{"type":"Point","coordinates":[30.54127,-29.72907]}},{"id":265,"type":"Feature","properties":{"name":"MIDDELBURG MPUMALANG","district":"Nkangala District","province":"MPUMALANGA"},"geometry":{"type":"Point","coordinates":[29.45876,-25.76254]}},{"id":266,"type":"Feature","properties":{"name":"MANGAUNG","district":"MANGAUNG DISTRICT","province":"FREE_STATE"},"geometry":{"type":"Point","coordinates":[26.24956,-29.15674]}},{"id":267,"type":"Feature","properties":{"name":"WELLINGTON","district":"Cape Winelands District","province":"WESTERN_CAPE"},"geometry":{"type":"Point","coordinates":[19.00515,-33.64022]}},{"id":268,"type":"Feature","properties":{"name":"ROUXVILLE","district":"XHARIEP DISTRICT","province":"FREE_STATE"},"geometry":{"type":"Point","coordinates":[26.83419,-30.42054]}},{"id":269,"type":"Feature","properties":{"name":"EXCELSIOR","district":"THABO MOFUTSANYANA DISTRICT","province":"FREE_STATE"},"geometry":{"type":"Point","coordinates":[27.06109,-28.9382]}},{"id":270,"type":"Feature","properties":{"name":"FICKSBURG","district":"THABO MOFUTSANYANA DISTRICT","province":"FREE_STATE"},"geometry":{"type":"Point","coordinates":[27.87397,-28.87051]}},{"id":271,"type":"Feature","properties":{"name":"HOBHOUSE","district":"THABO MOFUTSANYANA DISTRICT","province":"FREE_STATE"},"geometry":{"type":"Point","coordinates":[27.14284,-29.52845]}},{"id":272,"type":"Feature","properties":{"name":"MARQUARD","district":"THABO MOFUTSANYANA DISTRICT","province":"FREE_STATE"},"geometry":{"type":"Point","coordinates":[27.4259,-28.66536]}},{"id":273,"type":"Feature","properties":{"name":"SENEKAL","district":"THABO MOFUTSANYANA DISTRICT","province":"FREE_STATE"},"geometry":{"type":"Point","coordinates":[27.6226,-28.3212]}},{"id":274,"type":"Feature","properties":{"name":"BETHLEHEM","district":"THABO MOFUTSANYANA DISTRICT","province":"FREE_STATE"},"geometry":{"type":"Point","coordinates":[28.30889,-28.23108]}},{"id":275,"type":"Feature","properties":{"name":"CORNELIA","district":"FEZILE DABI DISTRICT","province":"FREE_STATE"},"geometry":{"type":"Point","coordinates":[28.85422,-27.23861]}},{"id":276,"type":"Feature","properties":{"name":"KESTELL","district":"THABO MOFUTSANYANA DISTRICT","province":"FREE_STATE"},"geometry":{"type":"Point","coordinates":[28.70516,-28.31452]}},{"id":277,"type":"Feature","properties":{"name":"REITZ","district":"THABO MOFUTSANYANA DISTRICT","province":"FREE_STATE"},"geometry":{"type":"Point","coordinates":[28.43171,-27.79927]}},{"id":278,"type":"Feature","properties":{"name":"TULBAGH","district":"Cape Winelands District","province":"WESTERN_CAPE"},"geometry":{"type":"Point","coordinates":[19.14052,-33.28503]}},{"id":279,"type":"Feature","properties":{"name":"SAWOTI","district":"Ugu District","province":"KWAZULU_NATAL"},"geometry":{"type":"Point","coordinates":[30.49026,-30.27408]}},{"id":280,"type":"Feature","properties":{"name":"SCOTTBURGH","district":"Ugu District","province":"KWAZULU_NATAL"},"geometry":{"type":"Point","coordinates":[30.75576,-30.28763]}},{"id":281,"type":"Feature","properties":{"name":"SOUTHPORT","district":"Ugu District","province":"KWAZULU_NATAL"},"geometry":{"type":"Point","coordinates":[30.50909,-30.66458]}},{"id":282,"type":"Feature","properties":{"name":"UMKOMAAS","district":"eThekwini District","province":"KWAZULU_NATAL"},"geometry":{"type":"Point","coordinates":[30.79157,-30.20719]}},{"id":283,"type":"Feature","properties":{"name":"HIBBERDENE","district":"Ugu District","province":"KWAZULU_NATAL"},"geometry":{"type":"Point","coordinates":[30.57051,-30.57774]}},{"id":284,"type":"Feature","properties":{"name":"GAMALAKHE","district":"Ugu District","province":"KWAZULU_NATAL"},"geometry":{"type":"Point","coordinates":[30.34176,-30.79981]}},{"id":285,"type":"Feature","properties":{"name":"CHATSWORTH","district":"eThekwini District","province":"KWAZULU_NATAL"},"geometry":{"type":"Point","coordinates":[30.88538,-29.91231]}},{"id":286,"type":"Feature","properties":{"name":"CATO MANOR","district":"eThekwini District","province":"KWAZULU_NATAL"},"geometry":{"type":"Point","coordinates":[30.968,-29.86012]}},{"id":287,"type":"Feature","properties":{"name":"BAYVIEW","district":"eThekwini District","province":"KWAZULU_NATAL"},"geometry":{"type":"Point","coordinates":[30.9117,-29.92278]}},{"id":288,"type":"Feature","properties":{"name":"ILINGE","district":"CHRIS HANI DISTRICT","province":"EASTERN_CAPE"},"geometry":{"type":"Point","coordinates":[27.03843,-31.97622]}},{"id":289,"type":"Feature","properties":{"name":"PIET PLESSIS","district":"Dr Ruth Segomotsi Mompati District","province":"NORTH_WEST"},"geometry":{"type":"Point","coordinates":[24.40795,-26.1624]}},{"id":290,"type":"Feature","properties":{"name":"NDWEDWE","district":"Ilembe District","province":"KWAZULU_NATAL"},"geometry":{"type":"Point","coordinates":[30.93596,-29.51506]}},{"id":291,"type":"Feature","properties":{"name":"HARTEBEESKOP","district":"Gert Sibande District","province":"MPUMALANGA"},"geometry":{"type":"Point","coordinates":[30.93031,-26.18032]}},{"id":292,"type":"Feature","properties":{"name":"KOMANI","district":"CHRIS HANI DISTRICT","province":"EASTERN_CAPE"},"geometry":{"type":"Point","coordinates":[26.87144,-31.89704]}},{"id":293,"type":"Feature","properties":{"name":"HARARE","district":"City of Cape Town District","province":"WESTERN_CAPE"},"geometry":{"type":"Point","coordinates":[18.6693,-34.05193]}},{"id":294,"type":"Feature","properties":{"name":"KLEINVLEI","district":"City of Cape Town District","province":"WESTERN_CAPE"},"geometry":{"type":"Point","coordinates":[18.71879,-33.9882]}},{"id":295,"type":"Feature","properties":{"name":"AKASIA","district":"TSHWANE DISTRICT","province":"GAUTENG"},"geometry":{"type":"Point","coordinates":[28.09538,-25.62571]}},{"id":296,"type":"Feature","properties":{"name":"BOITEKONG","district":"Bojanala District","province":"NORTH_WEST"},"geometry":{"type":"Point","coordinates":[27.29704,-25.60465]}},{"id":297,"type":"Feature","properties":{"name":"KAGISHO","district":"Frances Baard District","province":"NORTHERN_CAPE"},"geometry":{"type":"Point","coordinates":[24.71971,-28.7114]}},{"id":298,"type":"Feature","properties":{"name":"GRABOUW","district":"Overberg District","province":"WESTERN_CAPE"},"geometry":{"type":"Point","coordinates":[19.01901,-34.15381]}},{"id":299,"type":"Feature","properties":{"name":"HERMANUS","district":"Overberg District","province":"WESTERN_CAPE"},"geometry":{"type":"Point","coordinates":[19.23623,-34.41859]}},{"id":300,"type":"Feature","properties":{"name":"KLEINMOND","district":"Overberg District","province":"WESTERN_CAPE"},"geometry":{"type":"Point","coordinates":[19.03232,-34.33963]}},{"id":301,"type":"Feature","properties":{"name":"DE AAR","district":"Pixley ka Seme District","province":"NORTHERN_CAPE"},"geometry":{"type":"Point","coordinates":[24.00504,-30.6606]}},{"id":302,"type":"Feature","properties":{"name":"ELANDSKRAAL","district":"Sekhukhune District","province":"LIMPOPO"},"geometry":{"type":"Point","coordinates":[29.41198,-24.71591]}},{"id":303,"type":"Feature","properties":{"name":"MECKLENBURG","district":"Sekhukhune District","province":"LIMPOPO"},"geometry":{"type":"Point","coordinates":[30.07359,-24.38627]}},{"id":304,"type":"Feature","properties":{"name":"LOERIESFONTEIN","district":"Namakwa District","province":"NORTHERN_CAPE"},"geometry":{"type":"Point","coordinates":[19.44893,-30.95563]}},{"id":305,"type":"Feature","properties":{"name":"VERENA","district":"Nkangala District","province":"MPUMALANGA"},"geometry":{"type":"Point","coordinates":[29.02751,-25.48245]}},{"id":306,"type":"Feature","properties":{"name":"RIETVLEI","district":"Umgungundlovu District","province":"KWAZULU_NATAL"},"geometry":{"type":"Point","coordinates":[30.34741,-29.17992]}},{"id":307,"type":"Feature","properties":{"name":"THABAZIMBI","district":"Waterberg District","province":"LIMPOPO"},"geometry":{"type":"Point","coordinates":[27.40775,-24.59703]}},{"id":308,"type":"Feature","properties":{"name":"KOPANONG","district":"MANGAUNG DISTRICT","province":"FREE_STATE"},"geometry":{"type":"Point","coordinates":[26.25326,-29.18644]}},{"id":309,"type":"Feature","properties":{"name":"KAGISANONG","district":"MANGAUNG DISTRICT","province":"FREE_STATE"},"geometry":{"type":"Point","coordinates":[26.23517,-29.18293]}},{"id":310,"type":"Feature","properties":{"name":"RATANDA","district":"SEDIBENG DISTRICT","province":"GAUTENG"},"geometry":{"type":"Point","coordinates":[28.32785,-26.55351]}},{"id":311,"type":"Feature","properties":{"name":"GERMISTON","district":"EKURHULENI DISTRICT","province":"GAUTENG"},"geometry":{"type":"Point","coordinates":[28.16174,-26.21722]}},{"id":312,"type":"Feature","properties":{"name":"GREYLINGSTAD","district":"Gert Sibande District","province":"MPUMALANGA"},"geometry":{"type":"Point","coordinates":[28.76545,-26.74201]}},{"id":313,"type":"Feature","properties":{"name":"KIMBERLEY","district":"Frances Baard District","province":"NORTHERN_CAPE"},"geometry":{"type":"Point","coordinates":[24.7632,-28.73487]}},{"id":314,"type":"Feature","properties":{"name":"INT AIRP KING SHAKA","district":"Kwazulu-Natal: ports of entry: Air","province":"KWAZULU_NATAL"},"geometry":{"type":"Point","coordinates":[31.10425,-29.61844]}},{"id":315,"type":"Feature","properties":{"name":"BAINSVLEI","district":"MANGAUNG DISTRICT","province":"FREE_STATE"},"geometry":{"type":"Point","coordinates":[26.12837,-29.06613]}},{"id":316,"type":"Feature","properties":{"name":"BATHO","district":"MANGAUNG DISTRICT","province":"FREE_STATE"},"geometry":{"type":"Point","coordinates":[26.22531,-29.13468]}},{"id":317,"type":"Feature","properties":{"name":"BAYSWATER","district":"MANGAUNG DISTRICT","province":"FREE_STATE"},"geometry":{"type":"Point","coordinates":[26.23033,-29.08896]}},{"id":318,"type":"Feature","properties":{"name":"DUNNOTTAR","district":"EKURHULENI DISTRICT","province":"GAUTENG"},"geometry":{"type":"Point","coordinates":[28.4388,-26.35129]}},{"id":319,"type":"Feature","properties":{"name":"NIGEL","district":"EKURHULENI DISTRICT","province":"GAUTENG"},"geometry":{"type":"Point","coordinates":[28.47217,-26.42076]}},{"id":320,"type":"Feature","properties":{"name":"STRAND","district":"City of Cape Town District","province":"WESTERN_CAPE"},"geometry":{"type":"Point","coordinates":[18.83286,-34.11592]}},{"id":321,"type":"Feature","properties":{"name":"NTAMBANANA","district":"King Cetshwayo District","province":"KWAZULU_NATAL"},"geometry":{"type":"Point","coordinates":[31.74294,-28.60502]}},{"id":322,"type":"Feature","properties":{"name":"KAGISO","district":"WEST RAND DISTRICT","province":"GAUTENG"},"geometry":{"type":"Point","coordinates":[27.78162,-26.16425]}},{"id":323,"type":"Feature","properties":{"name":"MAGALIESBURG","district":"WEST RAND DISTRICT","province":"GAUTENG"},"geometry":{"type":"Point","coordinates":[27.53867,-25.99744]}},{"id":324,"type":"Feature","properties":{"name":"RANDFONTEIN","district":"WEST RAND DISTRICT","province":"GAUTENG"},"geometry":{"type":"Point","coordinates":[27.7062,-26.18076]}},{"id":325,"type":"Feature","properties":{"name":"MONTCLAIR","district":"eThekwini District","province":"KWAZULU_NATAL"},"geometry":{"type":"Point","coordinates":[30.97392,-29.91872]}},{"id":326,"type":"Feature","properties":{"name":"DEVON","district":"EKURHULENI DISTRICT","province":"GAUTENG"},"geometry":{"type":"Point","coordinates":[28.78603,-26.3563]}},{"id":327,"type":"Feature","properties":{"name":"GLUCKSTADT","district":"Zululand District","province":"KWAZULU_NATAL"},"geometry":{"type":"Point","coordinates":[31.0321,-27.97561]}},{"id":328,"type":"Feature","properties":{"name":"EMBALENHLE","district":"Gert Sibande District","province":"MPUMALANGA"},"geometry":{"type":"Point","coordinates":[29.0747,-26.54492]}},{"id":329,"type":"Feature","properties":{"name":"LYTTELTON","district":"TSHWANE DISTRICT","province":"GAUTENG"},"geometry":{"type":"Point","coordinates":[28.19868,-25.83904]}},{"id":330,"type":"Feature","properties":{"name":"NORTHAM","district":"Waterberg District","province":"LIMPOPO"},"geometry":{"type":"Point","coordinates":[27.26438,-24.9599]}},{"id":331,"type":"Feature","properties":{"name":"LINGELETHU-WEST","district":"City of Cape Town District","province":"WESTERN_CAPE"},"geometry":{"type":"Point","coordinates":[18.66004,-34.04298]}},{"id":332,"type":"Feature","properties":{"name":"KWANOBUHLE","district":"NELSON MANDELA DISTRICT","province":"EASTERN_CAPE"},"geometry":{"type":"Point","coordinates":[25.39782,-33.81395]}},{"id":333,"type":"Feature","properties":{"name":"BATHURST","district":"SARAH BAARTMAN DISTRICT","province":"EASTERN_CAPE"},"geometry":{"type":"Point","coordinates":[26.83917,-33.50484]}},{"id":334,"type":"Feature","properties":{"name":"SOSHANGUVE","district":"TSHWANE DISTRICT","province":"GAUTENG"},"geometry":{"type":"Point","coordinates":[28.1126,-25.5287]}},{"id":335,"type":"Feature","properties":{"name":"GROOT-DRAKENSTEIN","district":"Cape Winelands District","province":"WESTERN_CAPE"},"geometry":{"type":"Point","coordinates":[18.97776,-33.86616]}},{"id":336,"type":"Feature","properties":{"name":"SUNDUMBILI","district":"Ilembe District","province":"KWAZULU_NATAL"},"geometry":{"type":"Point","coordinates":[31.40266,-29.13495]}},{"id":337,"type":"Feature","properties":{"name":"BULWER","district":"Harry Gwala District","province":"KWAZULU_NATAL"},"geometry":{"type":"Point","coordinates":[29.76945,-29.8118]}},{"id":338,"type":"Feature","properties":{"name":"CEZA","district":"Zululand District","province":"KWAZULU_NATAL"},"geometry":{"type":"Point","coordinates":[31.37832,-27.99503]}},{"id":339,"type":"Feature","properties":{"name":"SCHOEMANSDAL","district":"Ehlanzeni District","province":"MPUMALANGA"},"geometry":{"type":"Point","coordinates":[31.49894,-25.68235]}},{"id":340,"type":"Feature","properties":{"name":"HANKEY","district":"SARAH BAARTMAN DISTRICT","province":"EASTERN_CAPE"},"geometry":{"type":"Point","coordinates":[24.88528,-33.83223]}},{"id":341,"type":"Feature","properties":{"name":"HUMANSDORP","district":"SARAH BAARTMAN DISTRICT","province":"EASTERN_CAPE"},"geometry":{"type":"Point","coordinates":[24.77275,-34.02798]}},{"id":342,"type":"Feature","properties":{"name":"KAREEDOUW","district":"SARAH BAARTMAN DISTRICT","province":"EASTERN_CAPE"},"geometry":{"type":"Point","coordinates":[24.29433,-33.95386]}},{"id":343,"type":"Feature","properties":{"name":"KIRKWOOD","district":"SARAH BAARTMAN DISTRICT","province":"EASTERN_CAPE"},"geometry":{"type":"Point","coordinates":[25.44409,-33.39892]}},{"id":344,"type":"Feature","properties":{"name":"STORMS RIVER","district":"SARAH BAARTMAN DISTRICT","province":"EASTERN_CAPE"},"geometry":{"type":"Point","coordinates":[23.8889,-33.97407]}},{"id":345,"type":"Feature","properties":{"name":"ALEXANDRA","district":"JOHANNESBURG DISTRICT","province":"GAUTENG"},"geometry":{"type":"Point","coordinates":[28.10089,-26.10548]}},{"id":346,"type":"Feature","properties":{"name":"DIRKIESDORP","district":"Gert Sibande District","province":"MPUMALANGA"},"geometry":{"type":"Point","coordinates":[30.40569,-27.17452]}},{"id":347,"type":"Feature","properties":{"name":"HIGHFLATS","district":"Harry Gwala District","province":"KWAZULU_NATAL"},"geometry":{"type":"Point","coordinates":[30.19238,-30.25922]}},{"id":348,"type":"Feature","properties":{"name":"LADYBRAND","district":"THABO MOFUTSANYANA DISTRICT","province":"FREE_STATE"},"geometry":{"type":"Point","coordinates":[27.4568,-29.19591]}},{"id":349,"type":"Feature","properties":{"name":"MOWBRAY","district":"City of Cape Town District","province":"WESTERN_CAPE"},"geometry":{"type":"Point","coordinates":[18.47228,-33.95012]}},{"id":350,"type":"Feature","properties":{"name":"HOUT BAY","district":"City of Cape Town District","province":"WESTERN_CAPE"},"geometry":{"type":"Point","coordinates":[18.35674,-34.03052]}},{"id":351,"type":"Feature","properties":{"name":"BOSHOF","district":"LEJWELEPUTSWA DISTRICT","province":"FREE_STATE"},"geometry":{"type":"Point","coordinates":[25.23967,-28.54034]}},{"id":352,"type":"Feature","properties":{"name":"DEALESVILLE","district":"LEJWELEPUTSWA DISTRICT","province":"FREE_STATE"},"geometry":{"type":"Point","coordinates":[25.76379,-28.67602]}},{"id":353,"type":"Feature","properties":{"name":"DEWETSDORP","district":"MANGAUNG DISTRICT","province":"FREE_STATE"},"geometry":{"type":"Point","coordinates":[26.66246,-29.58358]}},{"id":354,"type":"Feature","properties":{"name":"PLOOYSBURG","district":"Pixley ka Seme District","province":"NORTHERN_CAPE"},"geometry":{"type":"Point","coordinates":[24.23761,-29.02645]}},{"id":355,"type":"Feature","properties":{"name":"WARRENTON","district":"Frances Baard District","province":"NORTHERN_CAPE"},"geometry":{"type":"Point","coordinates":[24.84885,-28.11489]}},{"id":356,"type":"Feature","properties":{"name":"WINDSORTON","district":"Frances Baard District","province":"NORTHERN_CAPE"},"geometry":{"type":"Point","coordinates":[24.71082,-28.32664]}},{"id":357,"type":"Feature","properties":{"name":"GLEN","district":"MANGAUNG DISTRICT","province":"FREE_STATE"},"geometry":{"type":"Point","coordinates":[26.33199,-28.93999]}},{"id":358,"type":"Feature","properties":{"name":"MAGATLE","district":"Capricorn District","province":"LIMPOPO"},"geometry":{"type":"Point","coordinates":[29.41087,-24.45995]}},{"id":359,"type":"Feature","properties":{"name":"NEBO","district":"Sekhukhune District","province":"LIMPOPO"},"geometry":{"type":"Point","coordinates":[29.75343,-24.86798]}},{"id":360,"type":"Feature","properties":{"name":"HLOGOTLOU","district":"Sekhukhune District","province":"LIMPOPO"},"geometry":{"type":"Point","coordinates":[29.73837,-25.02105]}},{"id":361,"type":"Feature","properties":{"name":"APEL","district":"Sekhukhune District","province":"LIMPOPO"},"geometry":{"type":"Point","coordinates":[29.78591,-24.42233]}},{"id":362,"type":"Feature","properties":{"name":"LETSITELE","district":"Mopani District","province":"LIMPOPO"},"geometry":{"type":"Point","coordinates":[30.39214,-23.89402]}},{"id":363,"type":"Feature","properties":{"name":"PHALABORWA","district":"Mopani District","province":"LIMPOPO"},"geometry":{"type":"Point","coordinates":[31.13608,-23.95261]}},{"id":364,"type":"Feature","properties":{"name":"VAALWATER","district":"Waterberg District","province":"LIMPOPO"},"geometry":{"type":"Point","coordinates":[28.11371,-24.2936]}},{"id":365,"type":"Feature","properties":{"name":"BETHELSDORP","district":"NELSON MANDELA DISTRICT","province":"EASTERN_CAPE"},"geometry":{"type":"Point","coordinates":[25.51261,-33.87062]}},{"id":366,"type":"Feature","properties":{"name":"DESPATCH","district":"NELSON MANDELA DISTRICT","province":"EASTERN_CAPE"},"geometry":{"type":"Point","coordinates":[25.47264,-33.80317]}},{"id":367,"type":"Feature","properties":{"name":"TRICHARDT","district":"Gert Sibande District","province":"MPUMALANGA"},"geometry":{"type":"Point","coordinates":[29.22408,-26.4936]}},{"id":368,"type":"Feature","properties":{"name":"KOLOMANE","district":"AMATHOLE DISTRICT","province":"EASTERN_CAPE"},"geometry":{"type":"Point","coordinates":[26.78883,-32.42247]}},{"id":369,"type":"Feature","properties":{"name":"MTHATHA","district":"OR TAMBO DISTRICT","province":"EASTERN_CAPE"},"geometry":{"type":"Point","coordinates":[28.77164,-31.58173]}},{"id":370,"type":"Feature","properties":{"name":"BALFOUR TVL","district":"Gert Sibande District","province":"MPUMALANGA"},"geometry":{"type":"Point","coordinates":[28.58695,-26.66282]}},{"id":371,"type":"Feature","properties":{"name":"KINROSS","district":"Gert Sibande District","province":"MPUMALANGA"},"geometry":{"type":"Point","coordinates":[29.08508,-26.4154]}},{"id":372,"type":"Feature","properties":{"name":"MASISI","district":"Vhembe District","province":"LIMPOPO"},"geometry":{"type":"Point","coordinates":[30.86261,-22.42221]}},{"id":373,"type":"Feature","properties":{"name":"HEALDTOWN","district":"AMATHOLE DISTRICT","province":"EASTERN_CAPE"},"geometry":{"type":"Point","coordinates":[26.64999,-32.74839]}},{"id":374,"type":"Feature","properties":{"name":"BRIGHTON BEACH","district":"eThekwini District","province":"KWAZULU_NATAL"},"geometry":{"type":"Point","coordinates":[31.00619,-29.93649]}},{"id":375,"type":"Feature","properties":{"name":"MALAMULELE","district":"Vhembe District","province":"LIMPOPO"},"geometry":{"type":"Point","coordinates":[30.68665,-23.00452]}},{"id":376,"type":"Feature","properties":{"name":"NAMAHADI","district":"THABO MOFUTSANYANA DISTRICT","province":"FREE_STATE"},"geometry":{"type":"Point","coordinates":[28.82841,-28.58345]}},{"id":377,"type":"Feature","properties":{"name":"MONTAGU","district":"Cape Winelands District","province":"WESTERN_CAPE"},"geometry":{"type":"Point","coordinates":[20.12967,-33.7846]}},{"id":378,"type":"Feature","properties":{"name":"GELVANDALE","district":"NELSON MANDELA DISTRICT","province":"EASTERN_CAPE"},"geometry":{"type":"Point","coordinates":[25.5503,-33.91055]}},{"id":379,"type":"Feature","properties":{"name":"KAMIESKROON","district":"Namakwa District","province":"NORTHERN_CAPE"},"geometry":{"type":"Point","coordinates":[17.93159,-30.21307]}},{"id":380,"type":"Feature","properties":{"name":"ZONKIZIZWE","district":"EKURHULENI DISTRICT","province":"GAUTENG"},"geometry":{"type":"Point","coordinates":[28.17933,-26.40597]}},{"id":381,"type":"Feature","properties":{"name":"KOMMISSIEPOORT","district":"THABO MOFUTSANYANA DISTRICT","province":"FREE_STATE"},"geometry":{"type":"Point","coordinates":[27.28657,-29.32488]}},{"id":382,"type":"Feature","properties":{"name":"VHULAUDZI","district":"Vhembe District","province":"LIMPOPO"},"geometry":{"type":"Point","coordinates":[30.1905,-22.95847]}},{"id":383,"type":"Feature","properties":{"name":"SILVERTON","district":"TSHWANE DISTRICT","province":"GAUTENG"},"geometry":{"type":"Point","coordinates":[28.29632,-25.73355]}},{"id":384,"type":"Feature","properties":{"name":"BRONKHORSTSPRUIT","district":"TSHWANE DISTRICT","province":"GAUTENG"},"geometry":{"type":"Point","coordinates":[28.74566,-25.80898]}},{"id":385,"type":"Feature","properties":{"name":"CULLINAN","district":"TSHWANE DISTRICT","province":"GAUTENG"},"geometry":{"type":"Point","coordinates":[28.52028,-25.67528]}},{"id":386,"type":"Feature","properties":{"name":"CAROLINA","district":"Gert Sibande District","province":"MPUMALANGA"},"geometry":{"type":"Point","coordinates":[30.11998,-26.07128]}},{"id":387,"type":"Feature","properties":{"name":"SILOAM","district":"Vhembe District","province":"LIMPOPO"},"geometry":{"type":"Point","coordinates":[30.18623,-22.89731]}},{"id":388,"type":"Feature","properties":{"name":"KENTON ON SEA","district":"SARAH BAARTMAN DISTRICT","province":"EASTERN_CAPE"},"geometry":{"type":"Point","coordinates":[26.66674,-33.68053]}},{"id":389,"type":"Feature","properties":{"name":"SABIE","district":"Ehlanzeni District","province":"MPUMALANGA"},"geometry":{"type":"Point","coordinates":[30.78207,-25.09528]}},{"id":390,"type":"Feature","properties":{"name":"IDA","district":"CHRIS HANI DISTRICT","province":"EASTERN_CAPE"},"geometry":{"type":"Point","coordinates":[27.55116,-31.40925]}},{"id":391,"type":"Feature","properties":{"name":"ALIWAL NORTH","district":"JOE GQABI DISTRICT","province":"EASTERN_CAPE"},"geometry":{"type":"Point","coordinates":[26.71103,-30.68748]}},{"id":392,"type":"Feature","properties":{"name":"BEDFORDVIEW","district":"EKURHULENI DISTRICT","province":"GAUTENG"},"geometry":{"type":"Point","coordinates":[28.13719,-26.1796]}},{"id":393,"type":"Feature","properties":{"name":"BLINKPAN","district":"Nkangala District","province":"MPUMALANGA"},"geometry":{"type":"Point","coordinates":[29.45108,-26.09934]}},{"id":394,"type":"Feature","properties":{"name":"GROBLERSDAL","district":"Sekhukhune District","province":"LIMPOPO"},"geometry":{"type":"Point","coordinates":[29.3896,-25.16553]}},{"id":395,"type":"Feature","properties":{"name":"MAARTENSHOOP","district":"Ehlanzeni District","province":"MPUMALANGA"},"geometry":{"type":"Point","coordinates":[30.234,-24.99079]}},{"id":396,"type":"Feature","properties":{"name":"OGIES","district":"Nkangala District","province":"MPUMALANGA"},"geometry":{"type":"Point","coordinates":[29.05272,-26.05064]}},{"id":397,"type":"Feature","properties":{"name":"MARA","district":"Vhembe District","province":"LIMPOPO"},"geometry":{"type":"Point","coordinates":[29.39279,-23.0909]}},{"id":398,"type":"Feature","properties":{"name":"STEYNSBURG","district":"JOE GQABI DISTRICT","province":"EASTERN_CAPE"},"geometry":{"type":"Point","coordinates":[25.82328,-31.29284]}},{"id":399,"type":"Feature","properties":{"name":"BURGERSDORP","district":"JOE GQABI DISTRICT","province":"EASTERN_CAPE"},"geometry":{"type":"Point","coordinates":[26.33273,-30.99708]}},{"id":400,"type":"Feature","properties":{"name":"JERICHO","district":"Bojanala District","province":"NORTH_WEST"},"geometry":{"type":"Point","coordinates":[27.81452,-25.34301]}},{"id":401,"type":"Feature","properties":{"name":"DIEPRIVIER","district":"City of Cape Town District","province":"WESTERN_CAPE"},"geometry":{"type":"Point","coordinates":[18.46485,-34.03161]}},{"id":402,"type":"Feature","properties":{"name":"FORT BEAUFORT","district":"AMATHOLE DISTRICT","province":"EASTERN_CAPE"},"geometry":{"type":"Point","coordinates":[26.63555,-32.77701]}},{"id":403,"type":"Feature","properties":{"name":"KINKELBOS","district":"SARAH BAARTMAN DISTRICT","province":"EASTERN_CAPE"},"geometry":{"type":"Point","coordinates":[25.87827,-33.64669]}},{"id":404,"type":"Feature","properties":{"name":"CLAREMONT","district":"City of Cape Town District","province":"WESTERN_CAPE"},"geometry":{"type":"Point","coordinates":[18.47286,-33.98442]}},{"id":405,"type":"Feature","properties":{"name":"MOTHOTLUNG","district":"Bojanala District","province":"NORTH_WEST"},"geometry":{"type":"Point","coordinates":[27.8873,-25.59975]}},{"id":406,"type":"Feature","properties":{"name":"KWAZAKELE","district":"NELSON MANDELA DISTRICT","province":"EASTERN_CAPE"},"geometry":{"type":"Point","coordinates":[25.58308,-33.87626]}},{"id":407,"type":"Feature","properties":{"name":"MPISI","district":"ALFRED NZO DISTRICT","province":"EASTERN_CAPE"},"geometry":{"type":"Point","coordinates":[29.93013,-31.14658]}},{"id":408,"type":"Feature","properties":{"name":"GOWAN LEA","district":"Harry Gwala District","province":"KWAZULU_NATAL"},"geometry":{"type":"Point","coordinates":[29.70266,-30.34742]}},{"id":409,"type":"Feature","properties":{"name":"PHUMALANGA","district":"JOE GQABI DISTRICT","province":"EASTERN_CAPE"},"geometry":{"type":"Point","coordinates":[27.57751,-30.57749]}},{"id":410,"type":"Feature","properties":{"name":"COFIMVABA","district":"CHRIS HANI DISTRICT","province":"EASTERN_CAPE"},"geometry":{"type":"Point","coordinates":[27.58411,-32.00375]}},{"id":411,"type":"Feature","properties":{"name":"BRAMLEY","district":"JOHANNESBURG DISTRICT","province":"GAUTENG"},"geometry":{"type":"Point","coordinates":[28.08413,-26.12079]}},{"id":412,"type":"Feature","properties":{"name":"MIDRAND","district":"JOHANNESBURG DISTRICT","province":"GAUTENG"},"geometry":{"type":"Point","coordinates":[28.12012,-25.99321]}},{"id":413,"type":"Feature","properties":{"name":"SANDTON","district":"JOHANNESBURG DISTRICT","province":"GAUTENG"},"geometry":{"type":"Point","coordinates":[28.0615,-26.08026]}},{"id":414,"type":"Feature","properties":{"name":"BELA-BELA","district":"Waterberg District","province":"LIMPOPO"},"geometry":{"type":"Point","coordinates":[28.29453,-24.87751]}},{"id":415,"type":"Feature","properties":{"name":"MODJADJISKLOOF","district":"Mopani District","province":"LIMPOPO"},"geometry":{"type":"Point","coordinates":[30.14385,-23.69563]}},{"id":416,"type":"Feature","properties":{"name":"GRAVELOTTE","district":"Mopani District","province":"LIMPOPO"},"geometry":{"type":"Point","coordinates":[30.61256,-23.95146]}},{"id":417,"type":"Feature","properties":{"name":"PRESTBURY","district":"Umgungundlovu District","province":"KWAZULU_NATAL"},"geometry":{"type":"Point","coordinates":[30.33822,-29.60667]}},{"id":418,"type":"Feature","properties":{"name":"DALTON","district":"Umgungundlovu District","province":"KWAZULU_NATAL"},"geometry":{"type":"Point","coordinates":[30.63626,-29.34421]}},{"id":419,"type":"Feature","properties":{"name":"EMATIMATOLO","district":"Umzinyathi District","province":"KWAZULU_NATAL"},"geometry":{"type":"Point","coordinates":[30.82659,-29.14101]}},{"id":420,"type":"Feature","properties":{"name":"KRANSKOP","district":"Umzinyathi District","province":"KWAZULU_NATAL"},"geometry":{"type":"Point","coordinates":[30.86405,-28.96604]}},{"id":421,"type":"Feature","properties":{"name":"LANGLAAGTE","district":"JOHANNESBURG DISTRICT","province":"GAUTENG"},"geometry":{"type":"Point","coordinates":[27.98447,-26.20815]}},{"id":422,"type":"Feature","properties":{"name":"MONDEOR","district":"JOHANNESBURG DISTRICT","province":"GAUTENG"},"geometry":{"type":"Point","coordinates":[28.01003,-26.27615]}},{"id":423,"type":"Feature","properties":{"name":"PROTEA","district":"JOHANNESBURG DISTRICT","province":"GAUTENG"},"geometry":{"type":"Point","coordinates":[27.83896,-26.27697]}},{"id":424,"type":"Feature","properties":{"name":"SARON","district":"Cape Winelands District","province":"WESTERN_CAPE"},"geometry":{"type":"Point","coordinates":[18.99944,-33.18409]}},{"id":425,"type":"Feature","properties":{"name":"MABOPANE","district":"TSHWANE DISTRICT","province":"GAUTENG"},"geometry":{"type":"Point","coordinates":[28.0575,-25.511]}},{"id":426,"type":"Feature","properties":{"name":"SUNNYSIDE","district":"TSHWANE DISTRICT","province":"GAUTENG"},"geometry":{"type":"Point","coordinates":[28.2077,-25.75444]}},{"id":427,"type":"Feature","properties":{"name":"OR TAMBO INTERN AIRP","district":"GAUTENG: PORTS OF ENTRY: AIR","province":"GAUTENG"},"geometry":{"type":"Point","coordinates":[28.22985,-26.13293]}},{"id":428,"type":"Feature","properties":{"name":"MTUNZINI","district":"King Cetshwayo District","province":"KWAZULU_NATAL"},"geometry":{"type":"Point","coordinates":[31.75453,-28.95414]}},{"id":429,"type":"Feature","properties":{"name":"EMPANGENI","district":"King Cetshwayo District","province":"KWAZULU_NATAL"},"geometry":{"type":"Point","coordinates":[31.88623,-28.74586]}},{"id":430,"type":"Feature","properties":{"name":"PORTERVILLE","district":"West Coast District","province":"WESTERN_CAPE"},"geometry":{"type":"Point","coordinates":[18.99274,-33.01164]}},{"id":431,"type":"Feature","properties":{"name":"SALDANHA","district":"West Coast District","province":"WESTERN_CAPE"},"geometry":{"type":"Point","coordinates":[17.93958,-33.00962]}},{"id":432,"type":"Feature","properties":{"name":"BEDFORD","district":"AMATHOLE DISTRICT","province":"EASTERN_CAPE"},"geometry":{"type":"Point","coordinates":[26.08275,-32.68363]}},{"id":433,"type":"Feature","properties":{"name":"STERKSTROOM","district":"CHRIS HANI DISTRICT","province":"EASTERN_CAPE"},"geometry":{"type":"Point","coordinates":[26.55598,-31.55052]}},{"id":434,"type":"Feature","properties":{"name":"GRAAFF-REINET","district":"SARAH BAARTMAN DISTRICT","province":"EASTERN_CAPE"},"geometry":{"type":"Point","coordinates":[24.53989,-32.25286]}},{"id":435,"type":"Feature","properties":{"name":"DIMBAZA","district":"BUFFALO CITY DISTRICT","province":"EASTERN_CAPE"},"geometry":{"type":"Point","coordinates":[27.20597,-32.83365]}},{"id":436,"type":"Feature","properties":{"name":"ELLIOTDALE","district":"AMATHOLE DISTRICT","province":"EASTERN_CAPE"},"geometry":{"type":"Point","coordinates":[28.68342,-31.96778]}},{"id":437,"type":"Feature","properties":{"name":"LUSIKISIKI","district":"OR TAMBO DISTRICT","province":"EASTERN_CAPE"},"geometry":{"type":"Point","coordinates":[29.57499,-31.36889]}},{"id":438,"type":"Feature","properties":{"name":"KHAYELITSHA","district":"City of Cape Town District","province":"WESTERN_CAPE"},"geometry":{"type":"Point","coordinates":[18.66599,-34.02464]}},{"id":439,"type":"Feature","properties":{"name":"WITBANK","district":"Nkangala District","province":"MPUMALANGA"},"geometry":{"type":"Point","coordinates":[29.23129,-25.88794]}},{"id":440,"type":"Feature","properties":{"name":"WOODSTOCK","district":"City of Cape Town District","province":"WESTERN_CAPE"},"geometry":{"type":"Point","coordinates":[18.44814,-33.92897]}},{"id":441,"type":"Feature","properties":{"name":"RIVIERSONDEREND","district":"Overberg District","province":"WESTERN_CAPE"},"geometry":{"type":"Point","coordinates":[19.92037,-34.15086]}},{"id":442,"type":"Feature","properties":{"name":"SOMERSET WEST","district":"City of Cape Town District","province":"WESTERN_CAPE"},"geometry":{"type":"Point","coordinates":[18.84466,-34.07682]}},{"id":443,"type":"Feature","properties":{"name":"STRUISBAAI","district":"Overberg District","province":"WESTERN_CAPE"},"geometry":{"type":"Point","coordinates":[20.05088,-34.80059]}},{"id":444,"type":"Feature","properties":{"name":"CLOETESVILLE","district":"Cape Winelands District","province":"WESTERN_CAPE"},"geometry":{"type":"Point","coordinates":[18.85526,-33.92257]}},{"id":445,"type":"Feature","properties":{"name":"CHARLESTOWN","district":"Amajuba District","province":"KWAZULU_NATAL"},"geometry":{"type":"Point","coordinates":[29.87355,-27.41557]}},{"id":446,"type":"Feature","properties":{"name":"INGOGO","district":"Amajuba District","province":"KWAZULU_NATAL"},"geometry":{"type":"Point","coordinates":[29.91188,-27.57737]}},{"id":447,"type":"Feature","properties":{"name":"WEPENER","district":"MANGAUNG DISTRICT","province":"FREE_STATE"},"geometry":{"type":"Point","coordinates":[27.037,-29.73115]}},{"id":448,"type":"Feature","properties":{"name":"CREIGHTON","district":"Harry Gwala District","province":"KWAZULU_NATAL"},"geometry":{"type":"Point","coordinates":[29.84284,-30.02955]}},{"id":449,"type":"Feature","properties":{"name":"MZAMBA","district":"ALFRED NZO DISTRICT","province":"EASTERN_CAPE"},"geometry":{"type":"Point","coordinates":[30.18437,-31.07529]}},{"id":450,"type":"Feature","properties":{"name":"STERKSPRUIT","district":"JOE GQABI DISTRICT","province":"EASTERN_CAPE"},"geometry":{"type":"Point","coordinates":[27.37134,-30.52837]}},{"id":451,"type":"Feature","properties":{"name":"TSOMO","district":"CHRIS HANI DISTRICT","province":"EASTERN_CAPE"},"geometry":{"type":"Point","coordinates":[27.81802,-32.03707]}},{"id":452,"type":"Feature","properties":{"name":"UMLAZI","district":"eThekwini District","province":"KWAZULU_NATAL"},"geometry":{"type":"Point","coordinates":[30.92848,-29.96252]}},{"id":453,"type":"Feature","properties":{"name":"IKAMVELIHLE","district":"NELSON MANDELA DISTRICT","province":"EASTERN_CAPE"},"geometry":{"type":"Point","coordinates":[25.60843,-33.79741]}},{"id":454,"type":"Feature","properties":{"name":"MBUZINI","district":"Ehlanzeni District","province":"MPUMALANGA"},"geometry":{"type":"Point","coordinates":[31.89291,-25.82101]}},{"id":455,"type":"Feature","properties":{"name":"OUDTSHOORN","district":"Garden Route District","province":"WESTERN_CAPE"},"geometry":{"type":"Point","coordinates":[22.20401,-33.58986]}},{"id":456,"type":"Feature","properties":{"name":"UNIONDALE","district":"Garden Route District","province":"WESTERN_CAPE"},"geometry":{"type":"Point","coordinates":[23.12582,-33.6573]}},{"id":457,"type":"Feature","properties":{"name":"LADISMITH","district":"Garden Route District","province":"WESTERN_CAPE"},"geometry":{"type":"Point","coordinates":[21.2683,-33.49487]}},{"id":458,"type":"Feature","properties":{"name":"TSHIDILAMOLOMO","district":"Ngaka Modiri Molema District","province":"NORTH_WEST"},"geometry":{"type":"Point","coordinates":[24.67348,-25.82608]}},{"id":459,"type":"Feature","properties":{"name":"OTTOSDAL","district":"Ngaka Modiri Molema District","province":"NORTH_WEST"},"geometry":{"type":"Point","coordinates":[25.99991,-26.81203]}},{"id":460,"type":"Feature","properties":{"name":"SULENKAMA","district":"OR TAMBO DISTRICT","province":"EASTERN_CAPE"},"geometry":{"type":"Point","coordinates":[28.68437,-31.01688]}},{"id":461,"type":"Feature","properties":{"name":"COFFEE BAY","district":"OR TAMBO DISTRICT","province":"EASTERN_CAPE"},"geometry":{"type":"Point","coordinates":[29.14881,-31.97848]}},{"id":462,"type":"Feature","properties":{"name":"KWAAIMAN","district":"OR TAMBO DISTRICT","province":"EASTERN_CAPE"},"geometry":{"type":"Point","coordinates":[28.97806,-31.9192]}},{"id":463,"type":"Feature","properties":{"name":"WIERDABRUG","district":"TSHWANE DISTRICT","province":"GAUTENG"},"geometry":{"type":"Point","coordinates":[28.15524,-25.82374]}},{"id":464,"type":"Feature","properties":{"name":"ORANJEVILLE","district":"FEZILE DABI DISTRICT","province":"FREE_STATE"},"geometry":{"type":"Point","coordinates":[28.20446,-26.98908]}},{"id":465,"type":"Feature","properties":{"name":"STILL BAY","district":"Garden Route District","province":"WESTERN_CAPE"},"geometry":{"type":"Point","coordinates":[21.41184,-34.37743]}},{"id":466,"type":"Feature","properties":{"name":"BUFFELSHOEK","district":"Dr Kenneth Kaunda District","province":"NORTH_WEST"},"geometry":{"type":"Point","coordinates":[27.39991,-26.80295]}},{"id":467,"type":"Feature","properties":{"name":"IKAGENG","district":"Dr Kenneth Kaunda District","province":"NORTH_WEST"},"geometry":{"type":"Point","coordinates":[27.06247,-26.72025]}},{"id":468,"type":"Feature","properties":{"name":"LEEUDORINGSTAD","district":"Dr Kenneth Kaunda District","province":"NORTH_WEST"},"geometry":{"type":"Point","coordinates":[26.24131,-27.23507]}},{"id":469,"type":"Feature","properties":{"name":"MAKWASSIE","district":"Dr Kenneth Kaunda District","province":"NORTH_WEST"},"geometry":{"type":"Point","coordinates":[25.9933,-27.31268]}},{"id":470,"type":"Feature","properties":{"name":"WOLMARANSSTAD","district":"Dr Kenneth Kaunda District","province":"NORTH_WEST"},"geometry":{"type":"Point","coordinates":[25.98018,-27.20175]}},{"id":471,"type":"Feature","properties":{"name":"JOUBERTON","district":"Dr Kenneth Kaunda District","province":"NORTH_WEST"},"geometry":{"type":"Point","coordinates":[26.58773,-26.89184]}},{"id":472,"type":"Feature","properties":{"name":"THOHOYANDOU","district":"Vhembe District","province":"LIMPOPO"},"geometry":{"type":"Point","coordinates":[30.45594,-22.97234]}},{"id":473,"type":"Feature","properties":{"name":"LAINGSBURG","district":"Central Karoo District","province":"WESTERN_CAPE"},"geometry":{"type":"Point","coordinates":[20.85937,-33.19758]}},{"id":474,"type":"Feature","properties":{"name":"FORT BROWN","district":"SARAH BAARTMAN DISTRICT","province":"EASTERN_CAPE"},"geometry":{"type":"Point","coordinates":[26.61773,-33.12978]}},{"id":475,"type":"Feature","properties":{"name":"SEVEN FOUNTAINS","district":"SARAH BAARTMAN DISTRICT","province":"EASTERN_CAPE"},"geometry":{"type":"Point","coordinates":[26.3261,-33.44057]}},{"id":476,"type":"Feature","properties":{"name":"KOMATIPOORT","district":"Ehlanzeni District","province":"MPUMALANGA"},"geometry":{"type":"Point","coordinates":[31.95774,-25.4362]}},{"id":477,"type":"Feature","properties":{"name":"BARBERTON","district":"Ehlanzeni District","province":"MPUMALANGA"},"geometry":{"type":"Point","coordinates":[31.05178,-25.79074]}},{"id":478,"type":"Feature","properties":{"name":"VOSBURG","district":"Pixley ka Seme District","province":"NORTHERN_CAPE"},"geometry":{"type":"Point","coordinates":[22.8814,-30.57359]}},{"id":479,"type":"Feature","properties":{"name":"BOSHOEK","district":"Dr Ruth Segomotsi Mompati District","province":"NORTH_WEST"},"geometry":{"type":"Point","coordinates":[24.28325,-25.72593]}},{"id":480,"type":"Feature","properties":{"name":"BRAY","district":"Dr Ruth Segomotsi Mompati District","province":"NORTH_WEST"},"geometry":{"type":"Point","coordinates":[23.7157,-25.45771]}},{"id":481,"type":"Feature","properties":{"name":"KURUMAN","district":"John Taolo Gaetsewe District","province":"NORTHERN_CAPE"},"geometry":{"type":"Point","coordinates":[23.43229,-27.45901]}},{"id":482,"type":"Feature","properties":{"name":"EMANGUZI","district":"Umkhanyakude District","province":"KWAZULU_NATAL"},"geometry":{"type":"Point","coordinates":[32.74348,-26.99803]}},{"id":483,"type":"Feature","properties":{"name":"LOUWSBURG","district":"Zululand District","province":"KWAZULU_NATAL"},"geometry":{"type":"Point","coordinates":[31.28124,-27.58069]}},{"id":484,"type":"Feature","properties":{"name":"DUNDEE","district":"Umzinyathi District","province":"KWAZULU_NATAL"},"geometry":{"type":"Point","coordinates":[30.23368,-28.16235]}},{"id":485,"type":"Feature","properties":{"name":"HATTINGSPRUIT","district":"Amajuba District","province":"KWAZULU_NATAL"},"geometry":{"type":"Point","coordinates":[30.124,-28.0792]}},{"id":486,"type":"Feature","properties":{"name":"PAUL ROUX","district":"THABO MOFUTSANYANA DISTRICT","province":"FREE_STATE"},"geometry":{"type":"Point","coordinates":[27.95304,-28.29686]}},{"id":487,"type":"Feature","properties":{"name":"TWEESPRUIT","district":"THABO MOFUTSANYANA DISTRICT","province":"FREE_STATE"},"geometry":{"type":"Point","coordinates":[27.02513,-29.18634]}},{"id":488,"type":"Feature","properties":{"name":"CLARENS","district":"THABO MOFUTSANYANA DISTRICT","province":"FREE_STATE"},"geometry":{"type":"Point","coordinates":[28.41983,-28.5154]}},{"id":489,"type":"Feature","properties":{"name":"MAFUBE","district":"FEZILE DABI DISTRICT","province":"FREE_STATE"},"geometry":{"type":"Point","coordinates":[28.50321,-27.26838]}},{"id":490,"type":"Feature","properties":{"name":"MEMEL","district":"THABO MOFUTSANYANA DISTRICT","province":"FREE_STATE"},"geometry":{"type":"Point","coordinates":[29.56703,-27.68155]}},{"id":491,"type":"Feature","properties":{"name":"TWEELING","district":"FEZILE DABI DISTRICT","province":"FREE_STATE"},"geometry":{"type":"Point","coordinates":[28.51549,-27.5544]}},{"id":492,"type":"Feature","properties":{"name":"BETHULIE","district":"XHARIEP DISTRICT","province":"FREE_STATE"},"geometry":{"type":"Point","coordinates":[25.97663,-30.49887]}},{"id":493,"type":"Feature","properties":{"name":"ROSEBANK","district":"JOHANNESBURG DISTRICT","province":"GAUTENG"},"geometry":{"type":"Point","coordinates":[28.03842,-26.14538]}},{"id":494,"type":"Feature","properties":{"name":"THABA-NCHU","district":"MANGAUNG DISTRICT","province":"FREE_STATE"},"geometry":{"type":"Point","coordinates":[26.84379,-29.2112]}},{"id":495,"type":"Feature","properties":{"name":"NIEKERKSHOOP","district":"Pixley ka Seme District","province":"NORTHERN_CAPE"},"geometry":{"type":"Point","coordinates":[22.83759,-29.32683]}},{"id":496,"type":"Feature","properties":{"name":"VRYHEID","district":"Zululand District","province":"KWAZULU_NATAL"},"geometry":{"type":"Point","coordinates":[30.79561,-27.76738]}},{"id":497,"type":"Feature","properties":{"name":"JOZINI","district":"Umkhanyakude District","province":"KWAZULU_NATAL"},"geometry":{"type":"Point","coordinates":[32.06406,-27.42715]}},{"id":498,"type":"Feature","properties":{"name":"PAULPIETERSBURG","district":"Zululand District","province":"KWAZULU_NATAL"},"geometry":{"type":"Point","coordinates":[30.81722,-27.42332]}},{"id":499,"type":"Feature","properties":{"name":"HANOVER","district":"Pixley ka Seme District","province":"NORTHERN_CAPE"},"geometry":{"type":"Point","coordinates":[24.44393,-31.06641]}},{"id":500,"type":"Feature","properties":{"name":"COLESBERG","district":"Pixley ka Seme District","province":"NORTHERN_CAPE"},"geometry":{"type":"Point","coordinates":[25.09446,-30.7197]}},{"id":501,"type":"Feature","properties":{"name":"MURRAYSBURG","district":"Central Karoo District","province":"WESTERN_CAPE"},"geometry":{"type":"Point","coordinates":[23.76155,-31.96489]}},{"id":502,"type":"Feature","properties":{"name":"CAPE TOWN CENTRAL","district":"City of Cape Town District","province":"WESTERN_CAPE"},"geometry":{"type":"Point","coordinates":[18.4231,-33.92774]}},{"id":503,"type":"Feature","properties":{"name":"CAMPS BAY","district":"City of Cape Town District","province":"WESTERN_CAPE"},"geometry":{"type":"Point","coordinates":[18.37672,-33.95604]}},{"id":504,"type":"Feature","properties":{"name":"MILNERTON","district":"City of Cape Town District","province":"WESTERN_CAPE"},"geometry":{"type":"Point","coordinates":[18.50175,-33.87562]}},{"id":505,"type":"Feature","properties":{"name":"PINELANDS","district":"City of Cape Town District","province":"WESTERN_CAPE"},"geometry":{"type":"Point","coordinates":[18.50137,-33.92691]}},{"id":506,"type":"Feature","properties":{"name":"KENSINGTON","district":"City of Cape Town District","province":"WESTERN_CAPE"},"geometry":{"type":"Point","coordinates":[18.51064,-33.90953]}},{"id":507,"type":"Feature","properties":{"name":"RANKIN'S PASS","district":"Waterberg District","province":"LIMPOPO"},"geometry":{"type":"Point","coordinates":[27.9136,-24.52865]}},{"id":508,"type":"Feature","properties":{"name":"BRIXTON","district":"JOHANNESBURG DISTRICT","province":"GAUTENG"},"geometry":{"type":"Point","coordinates":[27.99355,-26.19278]}},{"id":509,"type":"Feature","properties":{"name":"MULDERSDRIFT","district":"WEST RAND DISTRICT","province":"GAUTENG"},"geometry":{"type":"Point","coordinates":[27.85052,-26.03846]}},{"id":510,"type":"Feature","properties":{"name":"LAMONTVILLE","district":"eThekwini District","province":"KWAZULU_NATAL"},"geometry":{"type":"Point","coordinates":[30.93923,-29.94046]}},{"id":511,"type":"Feature","properties":{"name":"HILLCREST","district":"eThekwini District","province":"KWAZULU_NATAL"},"geometry":{"type":"Point","coordinates":[30.76489,-29.78427]}},{"id":512,"type":"Feature","properties":{"name":"MALVERN","district":"eThekwini District","province":"KWAZULU_NATAL"},"geometry":{"type":"Point","coordinates":[30.91017,-29.87456]}},{"id":513,"type":"Feature","properties":{"name":"ULUNDI","district":"Zululand District","province":"KWAZULU_NATAL"},"geometry":{"type":"Point","coordinates":[31.42827,-28.2959]}},{"id":514,"type":"Feature","properties":{"name":"NAMAKGALE","district":"Mopani District","province":"LIMPOPO"},"geometry":{"type":"Point","coordinates":[31.02834,-23.933]}},{"id":515,"type":"Feature","properties":{"name":"MOOIPLAAS","district":"AMATHOLE DISTRICT","province":"EASTERN_CAPE"},"geometry":{"type":"Point","coordinates":[28.05225,-32.7383]}},{"id":516,"type":"Feature","properties":{"name":"HOFMEYR","district":"CHRIS HANI DISTRICT","province":"EASTERN_CAPE"},"geometry":{"type":"Point","coordinates":[25.80221,-31.65593]}},{"id":517,"type":"Feature","properties":{"name":"JEFFREYS BAY","district":"SARAH BAARTMAN DISTRICT","province":"EASTERN_CAPE"},"geometry":{"type":"Point","coordinates":[24.92192,-34.0553]}},{"id":518,"type":"Feature","properties":{"name":"KEI BRIDGE","district":"AMATHOLE DISTRICT","province":"EASTERN_CAPE"},"geometry":{"type":"Point","coordinates":[27.97953,-32.50557]}},{"id":519,"type":"Feature","properties":{"name":"DOUGLAS","district":"Pixley ka Seme District","province":"NORTHERN_CAPE"},"geometry":{"type":"Point","coordinates":[23.77278,-29.05651]}},{"id":520,"type":"Feature","properties":{"name":"SWARTKOPS","district":"NELSON MANDELA DISTRICT","province":"EASTERN_CAPE"},"geometry":{"type":"Point","coordinates":[25.60443,-33.85136]}},{"id":521,"type":"Feature","properties":{"name":"DORINGKLOOF","district":"AMATHOLE DISTRICT","province":"EASTERN_CAPE"},"geometry":{"type":"Point","coordinates":[26.51463,-32.45969]}},{"id":522,"type":"Feature","properties":{"name":"POINT","district":"eThekwini District","province":"KWAZULU_NATAL"},"geometry":{"type":"Point","coordinates":[31.03983,-29.86189]}},{"id":523,"type":"Feature","properties":{"name":"WILLOWMORE","district":"SARAH BAARTMAN DISTRICT","province":"EASTERN_CAPE"},"geometry":{"type":"Point","coordinates":[23.48728,-33.29543]}},{"id":524,"type":"Feature","properties":{"name":"MOUNT ROAD","district":"NELSON MANDELA DISTRICT","province":"EASTERN_CAPE"},"geometry":{"type":"Point","coordinates":[25.59516,-33.95494]}},{"id":525,"type":"Feature","properties":{"name":"KABEGA PARK","district":"NELSON MANDELA DISTRICT","province":"EASTERN_CAPE"},"geometry":{"type":"Point","coordinates":[25.49849,-33.93989]}},{"id":526,"type":"Feature","properties":{"name":"WALMER","district":"NELSON MANDELA DISTRICT","province":"EASTERN_CAPE"},"geometry":{"type":"Point","coordinates":[25.58483,-33.97903]}},{"id":527,"type":"Feature","properties":{"name":"HUMEWOOD","district":"NELSON MANDELA DISTRICT","province":"EASTERN_CAPE"},"geometry":{"type":"Point","coordinates":[25.62617,-33.97403]}},{"id":528,"type":"Feature","properties":{"name":"WESTONARIA","district":"WEST RAND DISTRICT","province":"GAUTENG"},"geometry":{"type":"Point","coordinates":[27.65058,-26.323]}},{"id":529,"type":"Feature","properties":{"name":"VEREENIGING","district":"SEDIBENG DISTRICT","province":"GAUTENG"},"geometry":{"type":"Point","coordinates":[27.92999,-26.67931]}},{"id":530,"type":"Feature","properties":{"name":"VANDERBIJLPARK","district":"SEDIBENG DISTRICT","province":"GAUTENG"},"geometry":{"type":"Point","coordinates":[27.83306,-26.69897]}},{"id":531,"type":"Feature","properties":{"name":"ORKNEY","district":"Dr Kenneth Kaunda District","province":"NORTH_WEST"},"geometry":{"type":"Point","coordinates":[26.66994,-26.97781]}},{"id":532,"type":"Feature","properties":{"name":"BLOEMHOF","district":"Dr Ruth Segomotsi Mompati District","province":"NORTH_WEST"},"geometry":{"type":"Point","coordinates":[25.60685,-27.65256]}},{"id":533,"type":"Feature","properties":{"name":"TROMPSBURG","district":"XHARIEP DISTRICT","province":"FREE_STATE"},"geometry":{"type":"Point","coordinates":[25.78074,-30.03372]}},{"id":534,"type":"Feature","properties":{"name":"HAMMARSDALE","district":"eThekwini District","province":"KWAZULU_NATAL"},"geometry":{"type":"Point","coordinates":[30.65611,-29.7957]}},{"id":535,"type":"Feature","properties":{"name":"MBAZWANA","district":"Umkhanyakude District","province":"KWAZULU_NATAL"},"geometry":{"type":"Point","coordinates":[32.59923,-27.48081]}},{"id":536,"type":"Feature","properties":{"name":"SELOSESHA","district":"MANGAUNG DISTRICT","province":"FREE_STATE"},"geometry":{"type":"Point","coordinates":[26.81939,-29.19424]}},{"id":537,"type":"Feature","properties":{"name":"BARKLY WEST","district":"Frances Baard District","province":"NORTHERN_CAPE"},"geometry":{"type":"Point","coordinates":[24.52533,-28.53715]}},{"id":538,"type":"Feature","properties":{"name":"BELMONT","district":"Pixley ka Seme District","province":"NORTHERN_CAPE"},"geometry":{"type":"Point","coordinates":[24.36647,-29.41678]}},{"id":539,"type":"Feature","properties":{"name":"BOETSAP","district":"Frances Baard District","province":"NORTHERN_CAPE"},"geometry":{"type":"Point","coordinates":[24.45268,-27.9761]}},{"id":540,"type":"Feature","properties":{"name":"CAMPBELL","district":"Pixley ka Seme District","province":"NORTHERN_CAPE"},"geometry":{"type":"Point","coordinates":[23.71662,-28.8032]}},{"id":541,"type":"Feature","properties":{"name":"WAKKERSTROOM","district":"Gert Sibande District","province":"MPUMALANGA"},"geometry":{"type":"Point","coordinates":[30.1484,-27.35712]}},{"id":542,"type":"Feature","properties":{"name":"MANDENI","district":"Ilembe District","province":"KWAZULU_NATAL"},"geometry":{"type":"Point","coordinates":[31.41142,-29.15479]}},{"id":543,"type":"Feature","properties":{"name":"HARRISMITH","district":"THABO MOFUTSANYANA DISTRICT","province":"FREE_STATE"},"geometry":{"type":"Point","coordinates":[29.12786,-28.26961]}},{"id":544,"type":"Feature","properties":{"name":"PRETORIA MOOT","district":"TSHWANE DISTRICT","province":"GAUTENG"},"geometry":{"type":"Point","coordinates":[28.21685,-25.71295]}},